"시설종류",대상시설명,소재지도로명주소,소재지지번주소,위도,경도,관리기관명,관할경찰서명,CCTV설치여부,CCTV설치대수,보호구역도로폭,데이터기준일자
"초등학교",신방초등학교,경상남도 창원시 의창구 동읍 동읍로 127,,35.2867012393,128.6790630,경상남도 창원시청,창원서부경찰서,Y,,,2019-09-24
"초등학교",봉강초등학교,경상남도 창원시 의창구 동읍 동읍로 1131-3,,35.3508032194,128.6552590,경상남도 창원시청,창원서부경찰서,Y,,,2019-09-24
"초등학교",화양초등학교,경상남도 창원시 의창구 동읍 백월로 522,,35.3056157748,128.6529216998,경상남도 창원시청,창원서부경찰서,Y,,,2019-09-24
"초등학교",자여초등학교,경상남도 창원시 의창구 동읍 자여로 135,,35.2728471258,128.7056637848,경상남도 창원시청,창원서부경찰서,Y,,,2019-09-24
"어린이집",청아어린이집(보육시설),경상남도 창원시 의창구 동읍 의창대로900번길 8,,35.2783506631,128.6887841825,경상남도 창원시청,창원서부경찰서,N,,,2019-09-24
"초등학교",하천초등학교,경상남도 창원시 의창구 북면 하천로 145,,35.3692641466,128.6046853781,경상남도 창원시청,창원서부경찰서,Y,,,2019-09-24
"초등학교",온천초등학교,경상남도 창원시 의창구 북면 신리길30번길 17,,35.3494198603,128.6049090,경상남도 창원시청,창원서부경찰서,Y,,,2019-09-24
"어린이집",바른손 어린이집(보육시설),경상남도 창원시 의창구 북면 천주로840번길 23,,35.3291362763,128.6034958384,경상남도 창원시청,창원서부경찰서,N,,,2019-09-24
"초등학교",일동초등학교,경상남도 창원시 의창구 대산면 대산북로 461,,35.3686036489,128.6872958093,경상남도 창원시청,창원서부경찰서,Y,,,2019-09-24
"초등학교",우암초등학교,경상남도 창원시 의창구 대산면 우암로 35,,35.3339540643,128.7303982296,경상남도 창원시청,창원서부경찰서,Y,,,2019-09-24
"초등학교",신동초등학교,경상남도 창원시 의창구 대산면 주남로394번길 19-3,,35.3202549070,128.6997680,경상남도 창원시청,창원서부경찰서,Y,,,2019-09-24
"초등학교",대산초등학교,경상남도 창원시 의창구 대산면 제동길43번길 79-16,,35.3395159240,128.7104163468,경상남도 창원시청,창원서부경찰서,Y,,,2019-09-24
"초등학교",소답초등학교,경상남도 창원시 의창구 의창대로317번길 41,,35.2651601912,128.6288744246,경상남도 창원시청,창원서부경찰서,Y,,,2019-09-24
"유치원",성미유치원(유치원),경상남도 창원시 의창구 의안로66번길 33,,35.2677621795,128.6275902839,경상남도 창원시청,창원서부경찰서,Y,,,2019-09-24
"어린이집",해랑 어린이집(보육시설),경상남도 창원시 의창구 의안로8번길 13,,35.2622413308,128.6253300,경상남도 창원시청,창원서부경찰서,N,,,2019-09-24
"초등학교",중동 초등학교,경상남도 창원시 의창구 의창대로238번길 14,,35.2594802178,128.6234119539,경상남도 창원시청,창원서부경찰서,Y,,,2019-09-24
"초등학교",창원 초등학교,경상남도 창원시 의창구 의창구 읍성로 5-1,,35.2659560,128.6191110,경상남도 창원시청,창원서부경찰서,Y,,,2019-09-24
"초등학교",도계초등학교,경상남도 창원시 의창구 하남천동길 10,,35.2586962480,128.6393106420,경상남도 창원시청,창원서부경찰서,Y,,,2019-09-24
"초등학교",명도초등학교,경상남도 창원시 의창구 도계두리길 233,,35.2559780,128.6440235324,경상남도 창원시청,창원서부경찰서,Y,,,2019-09-24
"유치원",둥지유치원(유치원),경상남도 창원시 의창구 태복산로23번길 21,,35.2551319901,128.6392880,경상남도 창원시청,창원서부경찰서,Y,,,2019-09-24
"유치원",꽃누리 별누리 유치원(유치원),경상남도 창원시 의창구 도계로95번길 6-17,,35.2562662952,128.6411910488,경상남도 창원시청,창원서부경찰서,Y,,,2019-09-24
"초등학교",명서초등학교,경상남도 창원시 의창구 명서로 21,,35.2503624898,128.6440383467,경상남도 창원시청,창원서부경찰서,Y,,,2019-09-24
"초등학교",명곡초등학교,경상남도 창원시 의창구 우곡로159번길 22-11,,35.2429363754,128.6448375475,경상남도 창원시청,창원서부경찰서,Y,,,2019-09-24
"유치원",성모 유치원(유치원),경상남도 창원시 의창구 우곡로 177,,35.2414098745,128.6446950,경상남도 창원시청,창원서부경찰서,Y,,,2019-09-24
"유치원",기쁜 유치원(유치원),경상남도 창원시 의창구 우곡로71번길 18,,35.2463785021,128.6408950508,경상남도 창원시청,창원서부경찰서,Y,,,2019-09-24
"유치원",명곡유치원(유치원),경상남도 창원시 의창구 원이대로219번길 12,,35.2470423887,128.6445330,경상남도 창원시청,창원서부경찰서,Y,,,2019-09-24
"초등학교",대원초등학교,경상남도 창원시 의창구 두대로55번길 23,,35.2330257110,128.6509861851,경상남도 창원시청,창원중부경찰서,Y,,,2019-09-24
"초등학교",사화초등학교,경상남도 창원시 의창구 반계로80번길 7,,35.2522733281,128.6172738928,경상남도 창원시청,창원서부경찰서,Y,,,2019-09-24
"초등학교",평산초등학교,경상남도 창원시 의창구 사화로104번길 17,,35.2508317064,128.6167570,경상남도 창원시청,창원서부경찰서,Y,,,2019-09-24
"유치원",가람유치원(유치원),경상남도 창원시 의창구 반계로68번길 7,,35.2512598424,128.6151531316,경상남도 창원시청,창원서부경찰서,Y,,,2019-09-24
"어린이집",둘리라 영재어린이집(보육시설),경상남도 창원시 의창구 남산로9번길 52,,35.2609826744,128.6164440,경상남도 창원시청,창원서부경찰서,N,,,2019-09-24
"어린이집",숲속의나라 어린이집(보육시설),경상남도 창원시 의창구 사화로1번길 6,,35.2579067073,128.6089800,경상남도 창원시청,창원서부경찰서,N,,,2019-09-24
"초등학교",상북초등학교,경상남도 창원시 의창구 지귀로60번길 13-13,,35.2469094272,128.6532670852,경상남도 창원시청,창원서부경찰서,Y,,,2019-09-24
"유치원",한별유치원(유치원),경상남도 창원시 의창구 봉곡로35번길 3,,35.2490836071,128.6624350,경상남도 창원시청,창원서부경찰서,Y,,,2019-09-24
"어린이집",시립 봉곡어린이집(보육시설),경상남도 창원시 의창구 창이대로 195,,35.2449747884,128.6587118274,경상남도 창원시청,창원서부경찰서,N,,,2019-09-24
"초등학교",봉림초등학교,경상남도 창원시 의창구 사림로16번길 21,,35.2462494125,128.6779057664,경상남도 창원시청,창원중부경찰서,Y,,,2019-09-24
"초등학교",신월초등학교,경상남도 창원시 의창구 신월로72번길 12,,35.2253657890,128.6937290,경상남도 창원시청,창원중부경찰서,Y,,,2019-09-24
"유치원",한빛유치원(유치원),경상남도 창원시 의창구 신월로6번길 7,,35.2301703625,128.6894530,경상남도 창원시청,창원중부경찰서,Y,,,2019-09-24
"초등학교",용호초등학교,경상남도 창원시 의창구 외동반림로 170,,35.2342793538,128.6764816721,경상남도 창원시청,창원중부경찰서,Y,,,2019-09-24
"초등학교",용남초등학교,경상남도 창원시 의창구 용호로 65,,35.2357285918,128.6798460,경상남도 창원시청,창원중부경찰서,Y,,,2019-09-24
"초등학교",햇님어린이집,경상남도 창원시 의창구 남산로9번길 32-1,,35.2610424533,128.6144242810,경상남도 창원시청,창원서부경찰서,N,,,2019-09-24
"어린이집",미래나무 어린이집,경상남도 창원시 의창구 봉곡로24번길 9,,35.2480089722,128.6643020,경상남도 창원시청,창원서부경찰서,N,,,2019-09-24
"유치원",창원해돋이 유치원,경상남도 창원시 의창구 신월로17번길 7,,35.2307399803,128.6909467944,경상남도 창원시청,창원중부경찰서,Y,,,2019-09-24
"초등학교",북면초등학교,경상남도 창원시 의창구 북면 동전로110번길 36,,35.3052929284,128.6000128064,경상남도 창원시청,창원서부경찰서,Y,,,2019-09-24
"어린이집",창원 자연숲 어린이집,경상남도 창원시 의창구 북면 달천길52번길 9,,35.2889125175,128.6005433103,경상남도 창원시청,창원서부경찰서,N,,,2019-09-24
"초등학교",무동초등학교(신설),경상남도 창원시 의창구 북면 동곡로 65,,35.3208222062,128.5817003133,경상남도 창원시청,창원서부경찰서,Y,,,2019-09-24
"유치원",하나유치원,경상남도 창원시 의창구 북면 내감1길 15-21,,35.3002710,128.5896180,경상남도 창원시청,창원서부경찰서,Y,,,2019-09-24
"초등학교",창원한들초등학교,경상남도 창원시 의창구 의창구 소봉로 43,,35.2538300,128.6683510,경상남도 창원시청,창원서부경찰서,N,,,2019-09-24
"초등학교",감계초등학교,경상남도 창원시 의창구 북면 감계로140번길 51,,35.3003404428,128.5884823391,경상남도 창원시청,창원서부경찰서,Y,,,2019-09-24
"어린이집",경상남도청 어린이집,경상남도 창원시 의창구 상남로318,,35.2383053671,128.6959283047,경상남도 창원시청,창원서부경찰서,N,,,2019-09-24
"어린이집",코끼리영재어린이집,경상남도 창원시 의안로44번길 27-2,,35.2660240,128.6271570,경상남도 창원시청,창원서부경찰서,N,,,2019-09-24
"초등학교",내동초등학교,경상남도 창원시 성산구 두대로 185,경상남도 창원시 성산구 중앙동 114,35.2254854904,128.6624841579,경상남도 창원시청,창원중부경찰서,Y,3,,2019-09-24
"초등학교",반송초등학교,경상남도 창원시 성산구 반송로 133(반림동),경상남도 창원시 성산구 반림동 7,35.2373649295,128.6697171751,경상남도 창원시청,창원중부경찰서,Y,3,,2019-09-24
"초등학교",유목초등학교,경상남도 창원시 성산구 반송로29번길 15(반지동),경상남도 창원시 성산구 반지동 34,35.2447831354,128.6637437163,경상남도 창원시청,창원중부경찰서,Y,4,,2019-09-24
"초등학교",용지초등학교,경상남도 창원시 성산구 원이대로538번길 24,경상남도 창원시 성산구 중앙동 22,35.2288984867,128.6719643991,경상남도 창원시청,창원중부경찰서,Y,4,,2019-09-24
"초등학교",양곡초등학교,경상남도 창원시 성산구 양곡길 102,경상남도 창원시 성산구 신촌동 36-3,35.2022597084,128.6268881346,경상남도 창원시청,창원중부경찰서,Y,5,,2019-09-24
"초등학교",외동초등학교,경상남도 창원시 성산구 토월로43번길 14(상남동),경상남도 창원시 성산구 상남동 62,35.2167176231,128.6813301518,경상남도 창원시청,창원중부경찰서,Y,5,,2019-09-24
"초등학교",상남초등학교,경상남도 창원시 성산구 토월로 140(상남동),경상남도 창원시 성산구 상남동 44-2,35.2215870132,128.6894126184,경상남도 창원시청,창원중부경찰서,Y,5,,2019-09-24
"초등학교",웅남초등학교,경상남도 창원시 성산구 단정로 75,경상남도 창원시 성산구 상남동 44-3,35.2176677023,128.6876621359,경상남도 창원시청,창원중부경찰서,Y,3,,2019-09-24
"초등학교",동산초등학교,경상남도 창원시 성산구 단정로 126,경상남도 창원시 성산구 상남동 46,35.2141974627,128.6901555478,경상남도 창원시청,창원중부경찰서,Y,4,,2019-09-24
"초등학교",사파초등학교,경상남도 창원시 성산구 원이대로773번길 27 (사파동),경상남도 창원시 성산구 사파동 144,35.2193182776,128.6972331605,경상남도 창원시청,창원중부경찰서,Y,2,,2019-09-24
"초등학교",토월초등학교,경상남도 창원시 성산구 비음로4번길 33-11(사파동),경상남도 창원시 성산구 사파동 13,35.2273191865,128.6996799059,경상남도 창원시청,창원중부경찰서,Y,3,,2019-09-24
"초등학교",남정초등학교,경상남도 창원시 성산구 원이대로878번길 30 (가음동),경상남도 창원시 성산구 가음동 11,35.2111836894,128.6919686226,경상남도 창원시청,창원중부경찰서,Y,4,,2019-09-24
"초등학교",남양초등학교,경상남도 창원시 성산구 가음로13번길 5,경상남도 창원시 성산구 남양동 18,35.2120616995,128.6982592530,경상남도 창원시청,창원중부경찰서,Y,7,,2019-09-24
"초등학교",대방초등학교,경상남도 창원시 성산구 대정로 132(대방동),경상남도 창원시 성산구 대방동 359,35.2113457012,128.7068754021,경상남도 창원시청,창원중부경찰서,Y,7,,2019-09-24
"초등학교",안남초등학교,경상남도 창원시 성산구 가양로 158 (대방동),경상남도 창원시 성산구 대방동 368,35.2090901548,128.7103727468,경상남도 창원시청,창원중부경찰서,Y,6,,2019-09-24
"초등학교",남산초등학교,경상남도 창원시 성산구 가음로83번길 7(남양동),경상남도 창원시 성산구 남양동 36,35.2059319663,128.7045177106,경상남도 창원시청,창원중부경찰서,Y,5,,2019-09-24
"초등학교",성주초등학교,경상남도 창원시 성산구 가음정로 127 (가음동),경상남도 창원시 성산구 가음동 25,35.2055042537,128.6987858841,경상남도 창원시청,창원중부경찰서,Y,4,,2019-09-24
"초등학교",대암초등학교,경상남도 창원시 성산구 창이대로899번길 23(대방동),경상남도 창원시 성산구 대방동 372,35.2058661614,128.7094398791,경상남도 창원시청,창원중부경찰서,Y,2,,2019-09-24
"초등학교",안민초등학교,경상남도 창원시 성산구 안민로79번길 6(안민동),경상남도 창원시 성산구 안민동 190,35.1878828850,128.6877528713,경상남도 창원시청,창원중부경찰서,Y,4,,2019-09-24
"유치원",석화유치원,경상남도 창원시 성산구 창이대로707번길 8-15(사파동),경상남도 창원시 성산구 사파동 72-3,35.2213036421,128.7024318144,경상남도 창원시청,창원중부경찰서,Y,3,,2019-09-24
"유치원",동성아이별꽃유치원,경상남도 창원시 성산구 비음로 150(사파동),경상남도 창원시 성산구 사파동 93,35.2202107404,128.7058046782,경상남도 창원시청,창원중부경찰서,Y,3,,2019-09-24
"유치원",이레유치원,경상남도 창원시 성산구 대정로 32(가음동),경상남도 창원시 성산구 가음동 20-5,35.2069829612,128.6984784930,경상남도 창원시청,창원중부경찰서,Y,3,,2019-09-24
"유치원",리라이름유치원,경상남도 창원시 성산구 원이대로883번길 3-32(가음동),경상남도 창원시 성산구 가음동 22-2,35.2090737103,128.6959130298,경상남도 창원시청,창원중부경찰서,Y,3,,2019-09-24
"유치원",동화유치원,경상남도 창원시 성산구 정동로 164(남산동),경상남도 창원시 성산구 남산동 601-1,35.2048443010,128.6918546514,경상남도 창원시청,창원중부경찰서,Y,3,,2019-09-24
"유치원",롬비니유치원,경상남도 창원시 성산구 대정로 73(남양동),경상남도 창원시 성산구 남양동 20,35.2115154674,128.7004484724,경상남도 창원시청,창원중부경찰서,Y,3,,2019-09-24
"유치원",행복가득유치원,경상남도 창원시 성산구 가음로 45(남양동),경상남도 창원시 성산구 남양동 24,35.2088403765,128.7009812448,경상남도 창원시청,창원중부경찰서,Y,3,,2019-09-24
"유치원",중우유치원,경상남도 창원시 성산구 신촌로 112(신촌동),경상남도 창원시 성산구 신촌동 33-7,35.1995124490,128.6285197952,경상남도 창원시청,창원중부경찰서,Y,2,,2019-09-24
"어린이집",성주어린이집,경상남도 창원시 성산구 안민안길11번길 13(안민동),경상남도 창원시 성산구 안민동 92,35.1867447843,128.6900039137,경상남도 창원시청,창원중부경찰서,Y,3,,2019-09-24
"어린이집",상남어린이집,경상남도 창원시 성산구 신사로 173(사파동),경상남도 창원시 성산구 사파동 94-2,35.2189128479,128.7012046034,경상남도 창원시청,창원중부경찰서,Y,3,,2019-09-24
"어린이집",성모어린이집,경상남도 창원시 성산구 대암로 175(대방동),경상남도 창원시 성산구 대방동 354-7,35.2104492958,128.7111303877,경상남도 창원시청,창원중부경찰서,Y,3,,2019-09-24
"어린이집",가음어린이집,경상남도 창원시 성산구 가양로56번길 18(가음동),경상남도 창원시 성산구 가음동 37-1,35.2057177548,128.7018077025,경상남도 창원시청,창원중부경찰서,Y,3,,2019-09-24
"어린이집",창원어린이집,경상남도 창원시 성산구 대암로 32-15(남양동),경상남도 창원시 성산구 남양동 10,35.2133956715,128.7005579700,경상남도 창원시청,창원중부경찰서,Y,2,,2019-09-24
"어린이집",명성어린이집,경상남도 창원시 성산구 비음로91번길 21(사파동),경상남도 창원시 성산구 사파동 55-6,35.2268536013,128.7030529858,경상남도 창원시청,창원중부경찰서,Y,3,,2019-09-24
"특수학교",경남천광학교,경상남도 창원시 성산구 원이대로878번길 20(가음동),경상남도 창원시 성산구 가음동 11-2,35.2106803260,128.6926477788,경상남도 창원시청,창원중부경찰서,Y,2,,2019-09-24
"초등학교",삼정자초등학교,경상남도 창원시 성산구 외리로34번길 8(성주동),경상남도 창원시 성산구 삼정자동 103,35.2008998640,128.7090986242,경상남도 창원시청,창원중부경찰서,Y,3,,2019-09-24
"초등학교",용마초등학교(병설유치원),경상남도 창원시 마산합포구 산호남로50,,35.2157890,128.5846190,경상남도 창원시청,마산동부경찰서,Y,4,10,2019-09-24
"초등학교",산호초등학교(병설유치원),경상남도 창원시 마산합포구 회원동북로 53,,35.2197180,128.5795370,경상남도 창원시청,마산동부경찰서,Y,5,9,2019-09-24
"초등학교",합포초등학교(병설유치원),경상남도 창원시 마산합포구 허당로 73,,35.2123530,128.5841390,경상남도 창원시청,마산동부경찰서,Y,6,6,2019-09-24
"초등학교",가포초등학교,경상남도 창원시 마산합포구 가포로 376,,35.1592870,128.5752390,경상남도 창원시청,마산중부경찰서,Y,4,7,2019-09-24
"초등학교",현동초등학교(병설유치원),경상남도 창원시 마산합포구 현동6길 12,,35.1469687824,128.5565280492,경상남도 창원시청,마산중부경찰서,Y,3,15,2019-09-24
"초등학교",반동초등학교(병설유치원),경상남도 창원시 마산합포구 해양관광로 1460-14,,35.0828880,128.5820170,경상남도 창원시청,마산중부경찰서,Y,5,4,2019-09-24
"초등학교",성호초등학교(병설유치원),경상남도 창원시 마산합포구 성호동4길 21,,35.2092700,128.5713880,경상남도 창원시청,마산중부경찰서,Y,5,6,2019-09-24
"초등학교",완월초등학교(병설유치원),경상남도 창원시 마산합포구 고운로 201,,35.2003020,128.5631880,경상남도 창원시청,마산중부경찰서,Y,7,6,2019-09-24
"초등학교",월성초등학교(병설유치원),경상남도 창원시 마산합포구 완월남1길 17,,35.1960178503,128.5604716309,경상남도 창원시청,마산중부경찰서,Y,5,5,2019-09-24
"초등학교",해운초등학교,경상남도 창원시 마산합포구 월영남로 24,,35.1762570,128.5578620,경상남도 창원시청,마산중부경찰서,Y,5,17,2019-09-24
"초등학교",무학초등학교(병설유치원),경상남도 창원시 마산합포구 자산동8길 6,,35.2036230,128.5675990,경상남도 창원시청,마산중부경찰서,Y,7,3,2019-09-24
"초등학교",교방초등학교(병설유치원),경상남도 창원시 마산합포구 교방동1길 63,,35.2135184449,128.5650541951,경상남도 창원시청,마산중부경찰서,Y,5,7,2019-09-24
"초등학교",구산초등학교,경상남도 창원시 마산합포구 수정3길 8,,35.1202470,128.5793280,경상남도 창원시청,마산중부경찰서,Y,5,7,2019-09-24
"초등학교",상남초등학교(병설유치원),경상남도 창원시 마산합포구 합포서13길 20,,35.2127763542,128.5772337325,경상남도 창원시청,마산중부경찰서,Y,6,6,2019-09-24
"초등학교",하북초등학교(병설유치원),경상남도 창원시 마산합포구 지산5길 36,,35.1170710,128.4687710,경상남도 창원시청,마산중부경찰서,Y,5,5.5,2019-09-24
"초등학교",구산구서분교(병설유치원),경상남도 창원시 마산합포구 해양관광로 739,,35.1214200,128.5380710,경상남도 창원시청,마산중부경찰서,Y,2,7,2019-09-24
"초등학교",진동초등학교(병설유치원),경상남도 창원시 마산합포구 삼진의거대로661-22,,35.1186430,128.4901150,경상남도 창원시청,마산중부경찰서,Y,5,5,2019-09-24
"초등학교",진전초등학교(병설유치원),경상남도 창원시 마산합포구 팔의사로 727,,35.1181710,128.4064910,경상남도 창원시청,마산중부경찰서,Y,4,7,2019-09-24
"초등학교",우산초등학교(병설유치원),경상남도 창원시 마산합포구 미더덕로 378,,35.1049410,128.4790050,경상남도 창원시청,마산중부경찰서,Y,3,5,2019-09-24
"초등학교",신월초등학교,경상남도 창원시 마산합포구 월영마을로 40,,35.1709921764,128.5565240,경상남도 창원시청,마산중부경찰서,Y,5,4.5,2019-09-24
"초등학교",월영초등학교(병설유치원),경상남도 창원시 마산합포구 반월북1길 41,,35.1916717193,128.5628740622,경상남도 창원시청,마산중부경찰서,Y,6,5,2019-09-24
"초등학교",월포초등학교(병설유치원),경상남도 창원시 마산합포구 월영북15길 35,,35.1830080,128.5574962286,경상남도 창원시청,마산중부경찰서,Y,6,7,2019-09-24
"유치원",대자유치원,경상남도 창원시 마산합포구 몽고정길 50,,35.2062761058,128.5720340,경상남도 창원시청,마산중부경찰서,Y,2,6,2019-09-24
"유치원",반달유치원,경상남도 창원시 마산합포구 자산서14길 65,,35.2003170,128.5583960,경상남도 창원시청,마산중부경찰서,Y,3,6,2019-09-24
"유치원",세종유치원,경상남도 창원시 마산합포구 월영동남로 3,,35.1777449107,128.5643329321,경상남도 창원시청,마산중부경찰서,Y,3,24,2019-09-24
"유치원",아람유치원,경상남도 창원시 마산합포구 자산서13길 49,,35.2023200,128.5610842169,경상남도 창원시청,마산중부경찰서,Y,2,5,2019-09-24
"유치원",해비치유치원,경상남도 창원시 마산합포구 중앙남5길 23,,35.1932001714,128.5637157722,경상남도 창원시청,마산중부경찰서,Y,2,7,2019-09-24
"유치원",한솔유치원,경상남도 창원시 마산합포구 요장1길 110,,35.1107180,128.4950920,경상남도 창원시청,마산중부경찰서,Y,1,3,2019-09-24
"유치원",진선미유치원,경상남도 창원시 마산합포구 반월북1길 10,,35.1898703132,128.5619525067,경상남도 창원시청,마산중부경찰서,Y,1,5,2019-09-24
"유치원",한사랑유치원,경상남도 창원시 마산합포구 월영마을로 42,,35.1708965935,128.5572740,경상남도 창원시청,마산중부경찰서,N,0,4.5,2019-09-24
"유치원",YMCA유치원,경상남도 창원시 마산합포구 성호북2길 15,,35.2112190,128.5701510,경상남도 창원시청,마산중부경찰서,Y,1,6,2019-09-24
"어린이집",백양어린이집,경상남도 창원시 마산합포구 중앙남4길 9,,35.1923460,128.5638190,경상남도 창원시청,마산중부경찰서,Y,3,6,2019-09-24
"어린이집",추산어린이집,경상남도 창원시 마산합포구 성호서2길 5-1,,35.2075290,128.5709460,경상남도 창원시청,마산중부경찰서,Y,2,5,2019-09-24
"어린이집",마산삼성어린이집,경상남도 창원시 마산합포구 노산동5길 18,,35.2123150,128.5746970,경상남도 창원시청,마산중부경찰서,Y,2,7,2019-09-24
"어린이집",청운어린이집,경상남도 창원시 마산합포구 자산북1길 40,,35.2057460,128.5635520,경상남도 창원시청,마산중부경찰서,Y,4,6,2019-09-24
"어린이집",성원어린이집,경상남도 창원시 마산합포구 교방남1길 34,,35.2101916986,128.5652846301,경상남도 창원시청,마산중부경찰서,Y,4,5,2019-09-24
"어린이집",노벨자연어린이집,경상남도 창원시 마산합포구 완월남7길 32,,35.1962680,128.5588710,경상남도 창원시청,마산중부경찰서,Y,3,5,2019-09-24
"어린이집",밝은숲어린이집,경상남도 창원시 마산합포구 신서촌로 50-9,,35.1188650,128.4861200,경상남도 창원시청,마산중부경찰서,Y,1,3,2019-09-24
"어린이집",시립월영어린이집,경상남도 창원시 마산합포구 월영북로 25,,35.1825000,128.5560160601,경상남도 창원시청,마산중부경찰서,Y,1,12,2019-09-24
"어린이집",채움널어린이집,경상남도 창원시 마산합포구 완월동15길 9,,35.1997000,128.5666775427,경상남도 창원시청,마산중부경찰서,Y,1,6,2019-09-24
"초등학교",팔용초등학교,경상남도 창원시 마산회원구 학교단지로 31,경상남도 창원시 마산회원구 합성2동 17-4,35.2422331150,128.5939525250,경상남도 창원시청,마산동부경찰서,Y,4,6,2019-09-24
"초등학교",중리초등학교,경상남도 창원시 마산회원구 내서읍 호계안길 22,경상남도 창원시 마산회원구 내서읍 호계리 305,35.2559887821,128.5200576524,경상남도 창원시청,마산동부경찰서,Y,7,6,2019-09-24
"초등학교",상일초등학교,경상남도 창원시 마산회원구 내서읍 광려천서로 21,경상남도 창원시 마산회원구 내서읍 중리 1053,35.2445736475,128.5069471876,경상남도 창원시청,마산동부경찰서,Y,5,9,2019-09-24
"초등학교",내서초등학교,경상남도 창원시 마산회원구 북성로 480,경상남도 창원시 마산회원구 두척동 550-1,35.2381939407,128.5454478025,경상남도 창원시청,마산동부경찰서,Y,5,29,2019-09-24
"초등학교",석전초등학교,경상남도 창원시 마산회원구 석전동로 8,경상남도 창원시 마산회원구 석전2동 243-1,35.2322710817,128.5761875248,경상남도 창원시청,마산동부경찰서,Y,7,12,2019-09-24
"초등학교",구암초등학교,경상남도 창원시 마산회원구 구암북19길 153,경상남도 창원시 마산회원구 구암1동 260,35.2582698646,128.5943412441,경상남도 창원시청,마산동부경찰서,Y,6,6,2019-09-24
"초등학교",회원초등학교,경상남도 창원시 마산회원구 회원남로 51,경상남도 창원시 마산회원구 회원2동 393-1,35.2198272221,128.5667590,경상남도 창원시청,마산동부경찰서,Y,9,6,2019-09-24
"초등학교",양덕초등학교,경상남도 창원시 마산회원구 양덕동12길 86,경상남도 창원시 마산회원구 양덕1동 42,35.2338584976,128.5884986364,경상남도 창원시청,마산동부경찰서,Y,7,8,2019-09-24
"초등학교",합성초등학교,경상남도 창원시 마산회원구 합성북16길 75,경상남도 창원시 마산회원구 합성1동 76-5,35.2427842040,128.5819012861,경상남도 창원시청,마산동부경찰서,Y,9,11,2019-09-24
"초등학교",교동초등학교,경상남도 창원시 마산회원구 무학로 589,경상남도 창원시 마산회원구 회원2동 639-2,35.2214640761,128.5625182126,경상남도 창원시청,마산동부경찰서,Y,4,25,2019-09-24
"초등학교",북성초등학교,경상남도 창원시 마산회원구 석전북1길 3,경상남도 창원시 마산회원구 석전2동 203-7,35.2317780358,128.5700225568,경상남도 창원시청,마산동부경찰서,Y,6,6,2019-09-24
"초등학교",삼계초등학교,경상남도 창원시 마산회원구 내서읍 삼계로 36,경상남도 창원시 마산회원구 내서읍 삼계리 665,35.2326680317,128.5004351675,경상남도 창원시청,마산동부경찰서,Y,5,18,2019-09-24
"초등학교",감천초등학교,경상남도 창원시 마산회원구 내서읍 감천로 53,경상남도 창원시 마산회원구 내서읍 감천리 699-4,35.2071881021,128.5154754645,경상남도 창원시청,마산동부경찰서,Y,4,8,2019-09-24
"유치원",영도유치원,경상남도 창원시 마산회원구 회원남32길 14,경상남도 창원시 마산회원구 회원2동 656-6,35.2176363959,128.5624580156,경상남도 창원시청,마산동부경찰서,Y,2,8,2019-09-24
"유치원",샛별유치원,경상남도 창원시 마산회원구 회성시장2길 108,경상남도 창원시 마산회원구 회성동 458-5,35.2324915600,128.5616839969,경상남도 창원시청,마산동부경찰서,Y,3,5.5,2019-09-24
"특수학교",경남혜림학교,경상남도 창원시 마산회원구 합성북2길 48,경상남도 창원시 마산회원구 합성1동 599,35.2432634974,128.5802583730,경상남도 창원시청,마산동부경찰서,Y,7,8,2019-09-24
"초등학교",봉덕초등학교,경상남도 창원시 마산회원구 봉덕1길 14,경상남도 창원시 마산회원구 봉암동 435-3,35.2225398153,128.5941430,경상남도 창원시청,마산동부경찰서,Y,6,4.5,2019-09-24
"유치원",이화유치원,경상남도 창원시 마산회원구 회원북13길 98,경상남도 창원시 마산회원구 회원2동 633-15,35.2210000,128.5655310,경상남도 창원시청,마산동부경찰서,Y,1,9,2019-09-24
"유치원",연화유치원,경상남도 창원시 마산회원구 회성동5길 6,경상남도 창원시 마산회원구 회성동 468-20,35.2327080066,128.5652997294,경상남도 창원시청,마산동부경찰서,Y,1,5,2019-09-24
"초등학교",광려초등학교,경상남도 창원시 마산회원구 내서읍 삼계1길 47,경상남도 창원시 마산회원구 내서읍 삼계리 40,35.2281211266,128.5031324894,경상남도 창원시청,마산동부경찰서,Y,6,8,2019-09-24
"유치원",명성유치원,경상남도 창원시 마산회원구 내서읍 삼풍로 93,경상남도 창원시 마산회원구 내서읍 삼계리 11,35.2339530,128.5013425407,경상남도 창원시청,마산동부경찰서,Y,3,9,2019-09-24
"초등학교",안계초등학교,경상남도 창원시 마산회원구 내서읍 삼계숲길 246,경상남도 창원시 마산회원구 내서읍 삼계리 503,35.2314158374,128.4944191956,경상남도 창원시청,마산동부경찰서,Y,5,7,2019-09-24
"초등학교",호계초등학교,경상남도 창원시 마산회원구 내서읍 광려천북로 182,경상남도 창원시 마산회원구 내서읍 호계리 72-5,35.2656226593,128.5228100,경상남도 창원시청,마산동부경찰서,Y,5,6,2019-09-24
"초등학교",중앙초등학교,경상남도 창원시 마산회원구 팔용로 280,경상남도 창원시 마산회원구 구암2동 114-2,35.2483230442,128.6025926195,경상남도 창원시청,마산동부경찰서,Y,7,16,2019-09-24
"초등학교",전안초등학교,경상남도 창원시 마산회원구 내서읍 광려로 100,경상남도 창원시 마산회원구 내서읍 신감리 1373,35.2179718033,128.5020755163,경상남도 창원시청,마산동부경찰서,Y,4,7,2019-09-24
"어린이집",원계자연어린이집,경상남도 창원시 마산회원구 내서읍 원계증산길 46-34,경상남도 창원시 마산회원구 내서읍 원계리 497,35.2310630,128.5074311258,경상남도 창원시청,마산동부경찰서,Y,4,8,2019-09-24
"어린이집",꽃내음풀내음해돋이어린이집,경상남도 창원시 마산회원구 내서읍 광려로 183,경상남도 창원시 마산회원구 내서읍 신감리 1308-1,35.2124890,128.5078731574,경상남도 창원시청,마산동부경찰서,Y,2,8,2019-09-24
"유치원",그루터기어린이집,경상남도 창원시 마산회원구 내서읍 삼계로 175-30,경상남도 창원시 마산회원구 내서읍 삼계리 1048-1,35.2360637281,128.4878960561,경상남도 창원시청,마산동부경찰서,Y,1,8,2019-09-24
"유치원",천사유치원,경상남도 창원시 마산회원구 구암서2길 110,경상남도 창원시 마산회원구 구암1동 10-47,35.2495620,128.5944786775,경상남도 창원시청,마산동부경찰서,Y,3,7,2019-09-24
"유치원",소명유치원,경상남도 창원시 마산회원구 소계천서길 113,경상남도 창원시 마산회원구 구암1동 1340-1,35.2591963109,128.5954361828,경상남도 창원시청,마산동부경찰서,Y,4,6,2019-09-24
"유치원",성운유치원,경상남도 창원시 마산회원구 내서읍 함마대로 2694-93,경상남도 창원시 마산회원구 내서읍 중리 931-2,35.2538838551,128.5082182240,경상남도 창원시청,마산동부경찰서,Y,1,18,2019-09-24
"유치원",숲속유치원,경상남도 창원시 마산회원구 내서읍 삼계숲길 225,경상남도 창원시 마산회원구 내서읍 삼계리 825,35.2301330796,128.4943693061,경상남도 창원시청,마산동부경찰서,Y,4,7,2019-09-24
"유치원",삼계유치원,경상남도 창원시 마산회원구 내서읍 삼계로 127-11,경상남도 창원시 마산회원구 내서읍 삼계리 755,35.2328700,128.4911897119,경상남도 창원시청,마산동부경찰서,Y,2,8,2019-09-24
"유치원",유성유치원,경상남도 창원시 마산회원구 무학로 559,경상남도 창원시 마산회원구 회원2동 646-3,35.2178618699,128.5603493746,경상남도 창원시청,마산동부경찰서,Y,2,6,2019-09-24
"유치원",새싹유치원,경상남도 창원시 마산회원구 합성서1길 94,경상남도 창원시 마산회원구 합성1동 84-5,35.2406401817,128.5834854463,경상남도 창원시청,마산동부경찰서,Y,1,8,2019-09-24
"유치원",석화유치원,경상남도 창원시 마산회원구 구암반계길 24,경상남도 창원시 마산회원구 구암2동 1326,35.2496300,128.6040066115,경상남도 창원시청,마산동부경찰서,Y,2,7.5,2019-09-24
"유치원",세화유치원,경상남도 창원시 마산회원구 양덕동14길 5,경상남도 창원시 마산회원구 양덕1동 46-40,35.2319120,128.5867437943,경상남도 창원시청,마산동부경찰서,Y,3,7,2019-09-24
"유치원",비둘기동산유치원,경상남도 창원시 마산회원구 내서읍 호계본동로 54,경상남도 창원시 마산회원구 내서읍 호계리 517-3,35.2645000,128.5196730347,경상남도 창원시청,마산동부경찰서,Y,1,8,2019-09-24
"초등학교",가고파초등학교,경상남도 창원시 마산회원구 삼호로 110,경상남도 창원시 마산회원구 양덕2동 84-7,35.2257849048,128.5804026067,경상남도 창원시청,마산동부경찰서,Y,2,18,2019-09-24
"어린이집",쏠티동산어린이집,경상남도 창원시 마산회원구 내서읍 상곡안길 21,경상남도 창원시 마산회원구 내서읍 상곡리 43,35.2434850080,128.5028843086,경상남도 창원시청,마산동부경찰서,Y,3,8,2019-09-24
"유치원",솔빛길유치원,경상남도 창원시 마산회원구 삼호로 108,경상남도 창원시 마산회원구 삼호로 108,35.2253248558,128.5816765115,경상남도 창원시청,마산동부경찰서,Y,2,8,2019-09-24
"초등학교",중앙초등학교,경상남도 창원시 진해구 태백서로14번길 23,경상남도 창원시 진해구 태백동 5,35.1554218170,128.6754720398,경상남도 창원시청,진해경찰서,Y,4,10,2019-09-24
"초등학교",제황초등학교,경상남도 창원시 진해구 제황로 32,경상남도 창원시 진해구 제황산동 28-2,35.1487187868,128.6693540,경상남도 창원시청,진해경찰서,Y,6,10,2019-09-24
"초등학교",대야초등학교,경상남도 창원시 진해구 여좌로84번길 7,경상남도 창원시 진해구 여좌동 150,35.1587120,128.6636041292,경상남도 창원시청,진해경찰서,Y,3,10,2019-09-24
"초등학교",남산초등학교,경상남도 창원시 진해구 태평로37번길 17,경상남도 창원시 진해구 제황산동 28-13,35.1478387468,128.6633170169,경상남도 창원시청,진해경찰서,Y,9,8,2019-09-24
"초등학교",웅천초등학교,경상남도 창원시 진해구 웅천동로33,,35.1039648109,128.7557370,경상남도 창원시청,진해경찰서,N,,,2019-09-24
"초등학교",도천초등학교,경상남도 창원시 진해구 충장로 10,경상남도 창원시 진해구 도천동 12,35.1527449266,128.6538482617,경상남도 창원시청,진해경찰서,Y,4,10,2019-09-24
"초등학교",경화초등학교,경상남도 창원시 진해구 경화로38번길 5,경상남도 창원시 진해구 경화동 1186,35.1574285911,128.6875009521,경상남도 창원시청,진해경찰서,Y,7,8,2019-09-24
"초등학교",동부초등학교,경상남도 창원시 진해구 석동로 27,경상남도 창원시 진해구 석동 169-3,35.1557532874,128.7023727873,경상남도 창원시청,진해경찰서,Y,3,12,2019-09-24
"초등학교",석동초등학교,경상남도 창원시 진해구 석동로 85,경상남도 창원시 진해구 석동 634-1,35.1578133280,128.7068666832,경상남도 창원시청,진해경찰서,Y,6,10,2019-09-24
"초등학교",장복초등학교,경상남도 창원시 진해구 진해대로728번길 21,경상남도 창원시 진해구 석동 674,35.1578631027,128.6951081995,경상남도 창원시청,진해경찰서,Y,1,12,2019-09-24
"초등학교",덕산초등학교,경상남도 창원시 진해구 덕산로46번길 15,경상남도 창원시 진해구 자은동 863-1,35.1457697931,128.7050410,경상남도 창원시청,진해경찰서,Y,4,8,2019-09-24
"초등학교",자은초등학교,경상남도 창원시 진해구 자은로88번길 41,경상남도 창원시 진해구 자은동 396,35.1496576115,128.7120773132,경상남도 창원시청,진해경찰서,Y,2,8,2019-09-24
"초등학교",풍호초등학교,경상남도 창원시 진해구 풍호로 80,경상남도 창원시 진해구 풍호동 83-107,35.1389072650,128.7105838613,경상남도 창원시청,진해경찰서,Y,2,27,2019-09-24
"초등학교",장천초등학교,경상남도 창원시 진해구 충장로 719,경상남도 창원시 진해구 장천동 119-35,35.1262370107,128.7071903081,경상남도 창원시청,진해경찰서,Y,7,12,2019-09-24
"초등학교",명동초등학교,경상남도 창원시 진해구 명동로 93,경상남도 창원시 진해구 명동 338,35.0972875204,128.7205873930,경상남도 창원시청,진해경찰서,Y,4,10,2019-09-24
"초등학교",웅천초등학교,경상남도 창원시 진해구 웅천중로 80,경상남도 창원시 진해구 성내동 399-4,35.1134249395,128.7499166473,경상남도 창원시청,진해경찰서,Y,3,10,2019-09-24
"초등학교",웅동초등학교,경상남도 창원시 진해구 마천로 29,경상남도 창원시 진해구 마천동 144-8,35.1272443260,128.7831692264,경상남도 창원시청,진해경찰서,Y,5,10,2019-09-24
"초등학교",안골포초등학교,경상남도 창원시 진해구 안청북로 30,경상남도 창원시 진해구 청안동 475,35.1039866687,128.8062313502,경상남도 창원시청,진해경찰서,Y,5,20,2019-09-24
"초등학교",안청초등학교,경상남도 창원시 진해구 안골로 303,경상남도 창원시 진해구 안골동 369,35.0998432439,128.8065697857,경상남도 창원시청,진해경찰서,Y,6,20,2019-09-24
"초등학교",용원초등학교,경상남도 창원시 진해구 용원로78번길 11,경상남도 창원시 진해구 용원동 1251,35.0974411169,128.8182278954,경상남도 창원시청,진해경찰서,Y,4,8,2019-09-24
"초등학교",진해신항초등학교,경상남도 창원시 진해구 신항동로 158,,35.0896152574,128.8107620,경상남도 창원시청,진해경찰서,N,,,2019-09-24
"유치원",글로리아유치원,경상남도 창원시 진해구 태평로76번길 4,경상남도 창원시 진해구 태평동 58,35.1446217917,128.6670873889,경상남도 창원시청,진해경찰서,Y,3,25,2019-09-24
"유치원",국제유치원,경상남도 창원시 진해구 진해대로 802번길 11,경상남도 창원시 진해구 석동 217,35.1561469428,128.7020060,경상남도 창원시청,진해경찰서,Y,4,10,2019-09-24
"유치원",꽃숲유치원,경상남도 창원시 진해구 해원로2번길,경상남도 창원시 진해구 이동 347,35.1486590,128.6970860,경상남도 창원시청,진해경찰서,Y,2,9,2019-09-24
"유치원",어깨동무유치원,경상남도 창원시 진해구 이동로28번길 9,경상남도 창원시 진해구 이동 615-3,35.1501218891,128.6949563770,경상남도 창원시청,진해경찰서,Y,4,15,2019-09-24
"유치원",숲속나라유치원,경상남도 창원시 진해구 자은로28번길 3-1,경상남도 창원시 진해구 자은동 903-1,35.1496450802,128.7055548898,경상남도 창원시청,진해경찰서,Y,5,6,2019-09-24
"유치원",참좋은유치원,경상남도 창원시 진해구 용원중로 11,경상남도 창원시 진해구 용원동 1260-7,35.0983555859,128.8156603283,경상남도 창원시청,진해경찰서,Y,2,8,2019-09-24
"유치원",뜰에유치원,경상남도 창원시 진해구 용원북로11번길 8,경상남도 창원시 진해구 용원동 1174-8,35.1040544323,128.8152077104,경상남도 창원시청,진해경찰서,Y,4,15,2019-09-24
"유치원",샛별유치원,경상남도 창원시 진해구 충장로 319,경상남도 창원시 진해구 경화동 101,35.1537250346,128.6870777007,경상남도 창원시청,진해경찰서,Y,2,25,2019-09-24
"유치원",진해유치원,경상남도 창원시 진해구 청안로 289,경상남도 창원시 진해구 안골동 373,35.0970540,128.8030914189,경상남도 창원시청,진해경찰서,Y,2,25,2019-09-24
"유치원",동부유치원,경상남도 창원시 진해구 충장로455번길 19,경상남도 창원시 진해구 이동 62-4,35.1495950,128.7005105412,경상남도 창원시청,진해경찰서,Y,3,12,2019-09-24
"유치원",이삭유치원,경상남도 창원시 진해구 청안로 236,경상남도 창원시 진해구 청안동 58-9,35.1005280,128.8002990807,경상남도 창원시청,진해경찰서,Y,4,6,2019-09-24
"어린이집",여좌어린이집,경상남도 창원시 진해구 여좌로63번길 22,경상남도 창원시 진해구 여좌동 104-16,35.1580825138,128.6602685084,경상남도 창원시청,진해경찰서,Y,3,8,2019-09-24
"어린이집",근로복지공단어린이집,경상남도 창원시 진해구 진해대로776번길 35,경상남도 창원시 진해구 이동 457,35.1554494775,128.6980290,경상남도 창원시청,진해경찰서,Y,4,20,2019-09-24
"어린이집",은혜어린이집,경상남도 창원시 진해구 자은로78번길 41,경상남도 창원시 진해구 자은동 407-5,35.1485503056,128.7103336215,경상남도 창원시청,진해경찰서,Y,4,10,2019-09-24
"어린이집",용원어린이집,경상남도 창원시 진해구 용원남로7번길 4,경상남도 창원시 진해구 용원동 1130-2,35.0964374647,128.8192889798,경상남도 창원시청,진해경찰서,Y,4,15,2019-09-24
"어린이집",경화어린이집,경상남도 창원시 진해구 진해대로614번길 14,경상남도 창원시 진해구 경화동 1136-24,35.1569060,128.6828944265,경상남도 창원시청,진해경찰서,Y,3,6,2019-09-24
