"시설종류",대상시설명,소재지도로명주소,소재지지번주소,위도,경도,관리기관명,관할경찰서명,CCTV설치여부,CCTV설치대수,보호구역도로폭,데이터기준일자
"초등학교",일산초교,울산광역시 동구 진성12길 11,울산광역시 동구 일산동 452,35.5051718,129.4255979,울산 동구청,울산동부경찰서,Y,4,8,2019-09-18
"유치원",일산초교병설유치원,울산광역시 동구 진성12길 11,울산광역시 동구 일산동 452,35.5051718,129.4255979,울산 동구청,울산동부경찰서,Y,4,8,2019-09-18
"초등학교",화정초교,울산광역시 동구 대송 9길 55,울산광역시 동구 대송동 153,35.5019895,129.4206975,울산 동구청,울산동부경찰서,Y,12,8,2019-09-18
"초등학교",상진초교,울산광역시 동구 봉수로 50,울산광역시 동구 화정동 894,35.4918819,129.4185866,울산 동구청,울산동부경찰서,Y,9,10,2019-09-18
"초등학교",동부초교,울산광역시 동구 남목 13길 23,울산광역시 동구 동부동 676,35.5451404,129.4275909,울산 동구청,울산동부경찰서,Y,7,10,2019-09-18
"초등학교",방어진초교,울산광역시 동구 꽃바위로 31,울산광역시 동구 방어동 146,35.4873269,129.4247691,울산 동구청,울산동부경찰서,Y,14,12,2019-09-18
"유치원",방어진초교병설유치원,울산광역시 동구 꽃바위로 31,울산광역시 동구 방어동 146,35.4873269,129.4247691,울산 동구청,울산동부경찰서,Y,9,12,2019-09-18
"초등학교",명덕초교,울산광역시 동구 진성14길 15,울산광역시 동구 일산동 433,35.506073,129.4244675,울산 동구청,울산동부경찰서,Y,6,8,2019-09-18
"유치원",명덕초교병설유치원,울산광역시 동구 진성14길 15,울산광역시 동구 일산동 433,35.506073,129.4244675,울산 동구청,울산동부경찰서,Y,3,8,2019-09-18
"초등학교",미포초교,울산광역시 동구 진성15길 35,울산광역시 동구 일산동 438,35.5063768,129.421836,울산 동구청,울산동부경찰서,Y,4,8,2019-09-18
"유치원",미포초교병설유치원,울산광역시 동구 진성15길 35,울산광역시 동구 일산동 438,35.5063768,129.421836,울산 동구청,울산동부경찰서,Y,4,8,2019-09-18
"초등학교",화진초교,울산광역시 동구 방어진순환도로 543,울산광역시 동구 방어동 75,35.491362,129.4256151,울산 동구청,울산동부경찰서,Y,10,8,2019-09-18
"유치원",화진초교병설유치원,울산광역시 동구 방어진순환도로 543,울산광역시 동구 방어동 75,35.491362,129.4256151,울산 동구청,울산동부경찰서,Y,10,8,2019-09-18
"초등학교",남목초교,울산광역시 동구 옥류로 33,울산광역시 동구 서부동 370,35.5423784,129.4249604,울산 동구청,울산동부경찰서,Y,13,8,2019-09-18
"유치원",남목초교병설유치원,울산광역시 동구 옥류로 33,울산광역시 동구 서부동 370,35.5423784,129.4249604,울산 동구청,울산동부경찰서,Y,8,8,2019-09-18
"초등학교",전하초교,울산광역시 동구 바드래길 55,울산광역시 동구 전하동 549-5,35.5155476,129.428144,울산 동구청,울산동부경찰서,Y,7,8,2019-09-18
"유치원",전하초교병설유치원,울산광역시 동구 바드래길 55,울산광역시 동구 전하동 549-5,35.5155476,129.428144,울산 동구청,울산동부경찰서,Y,7,8,2019-09-18
"초등학교",주전초교,울산광역시 동구 동해안로 575,울산광역시 동구 주전동 277,35.5579707,129.456906,울산 동구청,울산동부경찰서,Y,4,8,2019-09-18
"유치원",주전초교병설유치원,울산광역시 동구 동해안로 575,울산광역시 동구 주전동 277,35.5579707,129.456906,울산 동구청,울산동부경찰서,Y,4,8,2019-09-18
"초등학교",녹수초교,울산광역시 동구 봉수로 545,울산광역시 동구 서부동 257-10,35.5308584,129.4286697,울산 동구청,울산동부경찰서,Y,7,20,2019-09-18
"초등학교",서부초교,울산광역시 동구 봉수로 457,울산광역시 동구 서부동 238-13,35.526102,129.4230302,울산 동구청,울산동부경찰서,Y,8,20,2019-09-18
"초등학교",화암초교,울산광역시 동구 화문로 55,울산광역시 동구 방어동 1150,35.4842146,129.415683,울산 동구청,울산동부경찰서,Y,11,12,2019-09-18
"초등학교",양지초교,울산광역시 동구 양지6길 33,울산광역시 동구 화정동 853,35.4973289,129.4212272,울산 동구청,울산동부경찰서,Y,11,8,2019-09-18
"초등학교",문현초교,울산광역시 동구 꽃바위6길 25,울산광역시 동구 방어동 999,35.4806528,129.4140455,울산 동구청,울산동부경찰서,Y,6,8,2019-09-18
"유치원",백조유치원,울산광역시 동구 진성12길 124,울산광역시 동구 전하동 635-18,35.510984,129.427502,울산 동구청,울산동부경찰서,Y,2,6,2019-09-18
"유치원",사랑유치원,울산광역시 동구 양지3길 12,울산광역시 동구 화정동 850-4,35.497854,129.420326,울산 동구청,울산동부경찰서,Y,2,6,2019-09-18
"유치원",환희지유치원,울산광역시 동구 진성4가길 38,울산광역시 동구 전하동 683-2,35.510965,129.4293622,울산 동구청,울산동부경찰서,Y,6,6,2019-09-18
"유치원",하나유치원,울산광역시 동구 방어진순환도로 521,울산광역시 동구 방어동 466-10,35.489346,129.423848,울산 동구청,울산동부경찰서,Y,2,6,2019-09-18
"유치원",현대동부유치원,울산광역시 동구 안산로 50-1,울산광역시 동구 동부동 156,35.542845,129.433005,울산 동구청,울산동부경찰서,Y,4,6,2019-09-18
"유치원",현대서부유치원,울산광역시 동구 방어진순환도로 995,울산광역시 동구 서부동 257,35.52742906,129.4297368,울산 동구청,울산동부경찰서,Y,5,12,2019-09-18
"유치원",선미유치원,울산광역시 동구 월봉8길 30,울산광역시 동구 화정동 873-7,35.4929932,129.420166,울산 동구청,울산동부경찰서,Y,6,7,2019-09-18
"유치원",우주유치원,울산광역시 동구 옥류로 33,울산광역시 동구 서부동 493-15,35.5423784,129.4249604,울산 동구청,울산동부경찰서,Y,3,6,2019-09-18
"유치원",꽃바위유치원,울산광역시 동구 문현2길 41,울산광역시 동구 방어동 1121-2,35.487471,129.411229,울산 동구청,울산동부경찰서,Y,3,12,2019-09-18
"유치원",대성유치원,울산광역시 동구 대송2길 10,울산광역시 동구 화정동 162,35.49991066,129.4179328,울산 동구청,울산동부경찰서,Y,3,6,2019-09-18
"유치원",룸비니유치원,울산광역시 동구 월봉7가길 12,울산광역시 동구 화정동 877-7,35.491526,129.419376,울산 동구청,울산동부경찰서,Y,2,6,2019-09-18
"유치원",서라벌유치원,울산광역시 동구 바드래길 92-1,울산광역시 동구 전하동 300-217,35.516312,129.4269304,울산 동구청,울산동부경찰서,Y,3,5,2019-09-18
"유치원",그림마을유치원,울산광역시 동구 남목18길 28,울산광역시 동구 동부동 295-2,35.543366,129.427847,울산 동구청,울산동부경찰서,Y,4,6,2019-09-18
"유치원",화암자연과학유치원,울산광역시 동구 화잠7길 62,울산광역시 동구 방어동 976-3,35.484279,129.411595,울산 동구청,울산동부경찰서,Y,3,8,2019-09-18
"어린이집",현대중공업어린이집,울산광역시 동구 명덕로 27,울산광역시 동구 서부동 100-8,35.5224741,129.429793,울산 동구청,울산동부경찰서,Y,1,12,2019-09-18
"어린이집",사라어린이집,울산광역시 동구 진성15나길 24,울산광역시 동구 전하동 672-12,35.507864,129.423331,울산 동구청,울산동부경찰서,Y,3,6,2019-09-18
"어린이집",무지개몬테소리어린이집,울산광역시 동구 진성10길 37,울산광역시 동구 전하동 689-7,35.506273,129.427649,울산 동구청,울산동부경찰서,Y,2,6,2019-09-18
"어린이집",앙팡어린이집,울산광역시 동구 진성13길 20,울산광역시 동구 전하동 687-1,35.506637,129.426179,울산 동구청,울산동부경찰서,Y,1,6,2019-09-18
"어린이집","남목, 명성몬테소리어린이집",울산광역시 동구 명덕6길 35,울산광역시 동구 서부동 181-61,35.524844,129.431501,울산 동구청,울산동부경찰서,Y,7,8,2019-09-18
"어린이집",꽃바위어린이집,울산광역시 동구 꽃바위2가길 21,울산광역시 동구 방어동 1155-4,35.483281,129.413207,울산 동구청,울산동부경찰서,Y,4,6,2019-09-18
"유치원",상상미술유치원,울산광역시 동구 월봉10나길 4,울산광역시 동구 화정동 867-3,35.493621,129.4198821,울산 동구청,울산동부경찰서,Y,4,8,2019-09-18
"어린이집",설리반영어어린이집,울산광역시 동구 진성11길 37,울산광역시 동구 전하동 688-7,35.506432,129.427161,울산 동구청,울산동부경찰서,Y,1,8,2019-09-18
"어린이집",꼬마성어린이집,울산광역시 동구 남목14길 37,울산광역시 동구 동부동 408-1,35.545739,129.425865,울산 동구청,울산동부경찰서,N,0,6,2019-09-18
"어린이집",자연어린이집,울산광역시 남구 왕생로 72번길 17,울산광역시 남구 달동 1350-10,35.540231,129.332845,울산광역시 남구청,남부경찰서,N,,,2019-09-18
"어린이집",꽃무지어린이집,울산광역시 남구 대학로 145번길 53,울산광역시 남구 무거동 829-6,35.550577,129.256536,울산광역시 남구청,남부경찰서,N,,,2019-09-18
"어린이집",삼성어린이집,울산광역시 남구 돋질로 183번길 26,울산광역시 남구 신정5동 133-7,35.543828,129.324568,울산광역시 남구청,남부경찰서,Y,2,,2019-09-18
"어린이집",지안어린이집,울산광역시 남구 중앙로 128번길 64,울산광역시 남구 달동 758-2,35.53427147,129.3217598,울산광역시 남구청,남부경찰서,Y,1,,2019-09-18
"어린이집",솔로몬예능어린이집,울산광역시 남구 신남로 42,울산광역시 남구 신정4동 946-6,35.525419,129.3142807,울산광역시 남구청,남부경찰서,Y,2,,2019-09-18
"어린이집",천사어린이집,울산광역시 남구 두왕로 106번길 9-12,울산광역시 남구 선암동 564-6,35.513122,129.3106751,울산광역시 남구청,남부경찰서,Y,1,,2019-09-18
"어린이집",사랑몬테소리어린이집,울산광역시 남구 대학로 145번길 69,울산광역시 남구 무거동 830-10,35.550215,129.2549912,울산광역시 남구청,남부경찰서,Y,2,,2019-09-18
"어린이집",사랑나무어린이집,울산광역시 남구 대공원입구로 21번길 52,울산광역시 남구 옥동 252-14,35.534836,129.288741,울산광역시 남구청,남부경찰서,Y,2,,2019-09-18
"어린이집",소정몬테소리어린이집,울산광역시 남구 문수로 321번길 4,울산광역시 남구 옥동 585-2,35.536215,129.288951,울산광역시 남구청,남부경찰서,Y,1,,2019-09-18
"유치원",옥현유치원,울산광역시 남구 옥현로 18,울산광역시 남구 무거동 488-16,35.539262,129.2581766,울산광역시 남구청,남부경찰서,Y,1,,2019-09-18
"유치원",수니유치원,울산광역시 남구 장검1길 21-8,울산광역시 남구 무거동 1541,35.5533657,129.2555356,울산광역시 남구청,남부경찰서,Y,2,,2019-09-18
"유치원",현대한솔유치원,울산광역시 남구 월평로 253,울산광역시 남구 삼산동 1459-1,35.54748794,129.3344628,울산광역시 남구청,남부경찰서,Y,1,,2019-09-18
"유치원",프라임유치원,울산광역시 남구 삼산중로 128번길 21,울산광역시 남구 삼산동 1538-2,35.54504494,129.3375892,울산광역시 남구청,남부경찰서,Y,2,,2019-09-18
"유치원",옥동예은유치원,울산광역시 남구 문수로 410번길 6,울산광역시 남구 신정2동 1634,35.53306884,129.2979984,울산광역시 남구청,남부경찰서,N,,,2019-09-18
"유치원",아름유치원,울산광역시 남구 월평로 274,울산광역시 남구 삼산동 1461-3,35.54667121,129.334787,울산광역시 남구청,남부경찰서,Y,1,,2019-09-18
"유치원",서울유치원,울산광역시 남구 수암로 155번길 22-7,울산광역시 남구 야음동 695-2,35.528792,129.323097,울산광역시 남구청,남부경찰서,Y,2,,2019-09-18
"유치원",하늘숲생태유치원,울산광역시 남구 번영로 30번길 15-4,울산광역시 남구 야음동 487-16,35.5282771,129.3326199,울산광역시 남구청,남부경찰서,Y,2,,2019-09-18
"유치원",노벨유치원,울산광역시 남구 돋질로 254,울산광역시 남구 달동 1330-1,35.54322141,129.332935,울산광역시 남구청,남부경찰서,Y,1,,2019-09-18
"유치원",금란유치원,울산광역시 남구 중앙로 15,울산광역시 남구 야음동879,35.523029,129.318439,울산광역시 남구청,남부경찰서,N,,,2019-09-18
"유치원",새꿈동산유치원,울산광역시 남구 삼호로 149번길 22,울산광역시 남구 무거동 1236-11,35.548837,129.280059,울산광역시 남구청,남부경찰서,Y,3,,2019-09-18
"유치원",이화유치원,울산광역시 남구 삼산로 77번길 35-1,울산광역시 남구 달동 877-5,35.5376109,129.3148092,울산광역시 남구청,남부경찰서,Y,1,,2019-09-18
"유치원",이레유치원,울산광역시 남구 번영로 75번길 31,울산광역시 남구 달동 1379-1,35.531283,129.3266771,울산광역시 남구청,남부경찰서,Y,1,,2019-09-18
"유치원",정광사유치원,울산광역시 남구 삼호로 193,울산광역시 남구 무거동 1260-3,35.546299,129.284842,울산광역시 남구청,남부경찰서,Y,2,,2019-09-18
"유치원",한별유치원,울산광역시 남구 신복로 71번길 12,울산광역시 남구 무거동 832-2,35.5480758,129.2547437,울산광역시 남구청,남부경찰서,Y,1,,2019-09-18
"유치원",예랑유치원,울산광역시 남구 신복로 41번길 12,울산광역시 남구 무거동 844-6,35.5478484,129.2566097,울산광역시 남구청,남부경찰서,Y,1,,2019-09-18
"유치원",베델유치원,울산광역시 남구 어은로 3번길 7,울산광역시 남구 무거동 1170-2,35.550007,129.272249,울산광역시 남구청,남부경찰서,Y,1,,2019-09-18
"유치원",탐앤드제인유치원,울산광역시 남구 두왕로 34번길 33-25,울산광역시 남구 선암동 591-2,35.506428,129.312562,울산광역시 남구청,남부경찰서,Y,1,,2019-09-18
"유치원",정지유치원,울산광역시 남구 돋질로 183번길 33,울산광역시 남구 신정5동 131-4,35.5443025,129.324051,울산광역시 남구청,남부경찰서,Y,2,,2019-09-18
"유치원",요요영재유치원,울산광역시 남구 야음로 5번길 21,울산광역시 남구 야음동 748-1,35.522334,129.3217849,울산광역시 남구청,남부경찰서,Y,2,,2019-09-18
"유치원",새울산유치원,울산광역시 남구 꽃대나리로 46번길 5,울산광역시 남구 야음동 530-2,35.5328031,129.335318,울산광역시 남구청,남부경찰서,Y,1,,2019-09-18
"유치원",새라유치원,울산광역시 남구 화합로 71번길 17,울산광역시 남구 야음동 14-1,35.5313861,129.3393399,울산광역시 남구청,남부경찰서,Y,2,,2019-09-18
"유치원",남선미유치원,울산광역시 남구 돋질로 302번길 8,울산광역시 남구 삼산동 1547-1,35.543442,129.337489,울산광역시 남구청,남부경찰서,Y,2,,2019-09-18
"유치원",나래유치원,울산광역시 남구 삼호로 66-1,울산광역시 남구 무거동 1184-4,35.549407,129.2715836,울산광역시 남구청,남부경찰서,Y,1,,2019-09-18
"유치원",해바라기유치원,울산광역시 남구 대공원로 115번길 13,울산광역시 남구 옥동 140-13,35.530856,129.295933,울산광역시 남구청,남부경찰서,Y,1,,2019-09-18
"유치원",아이사랑유치원,울산광역시 남구 중앙로 28번길 5-11,울산광역시 남구 야음동 722-39,35.524594,129.318576,울산광역시 남구청,남부경찰서,Y,3,,2019-09-18
"유치원",삼산초등학교 병설유치원,울산광역시 남구 남중로 108번길 19,울산광역시 남구 삼산동 196-1,35.544079,129.349791,울산광역시 남구청,남부경찰서,N,,,2019-09-18
"유치원",삼호초등학교 병설유치원,울산광역시 남구 북부순환도로 19번길 8,울산광역시 남구 무거동 292-5,35.5526324,129.2649893,울산광역시 남구청,남부경찰서,N,,,2019-09-18
"유치원",남산초등학교 병설유치원,울산광역시 남구 거마로 17,울산광역시 남구 옥동 1369,35.536826,129.2956472,울산광역시 남구청,남부경찰서,N,,,2019-09-18
"유치원",장생포초등학교 병설유치원,울산광역시 남구 장생포고래로 125번길 5,울산광역시 남구 장생포동 329-1,35.5036792,129.368319,울산광역시 남구청,남부경찰서,N,,,2019-09-18
"유치원",옥동초등학교 병설유치원,울산광역시 남구 문수로 401,울산광역시 남구 옥동 157-3,35.5348327,129.2963595,울산광역시 남구청,남부경찰서,N,,,2019-09-18
"유치원",월평초등학교 병설유치원,울산광역시 남구 신남로 95번길 15,울산광역시 남구 신정4동 791-9,35.529715,129.312118,울산광역시 남구청,남부경찰서,N,,,2019-09-18
"유치원",월봉초등학교 병설유치원,울산광역시 남구 팔등로 115번길 10,울산광역시 남구 신정5동 266,35.5482042,129.3192424,울산광역시 남구청,남부경찰서,N,,,2019-09-18
"유치원",중앙초등학교 병설유치원,울산광역시 남구 돋질로 91번길 38,울산광역시 남구 신정3동 592-2,35.54236782,129.3145759,울산광역시 남구청,남부경찰서,N,,,2019-09-18
"유치원",여천초등학교 병설유치원,울산광역시 남구 여천로 31,울산광역시 남구 야음동 256,35.52442053,129.3372684,울산광역시 남구청,남부경찰서,N,,,2019-09-18
"유치원",개운초등학교 병설유치원,울산광역시 남구 두왕로 106번길 28-6,울산광역시 남구 선암동 559-11,35.5127824,129.3120188,울산광역시 남구청,남부경찰서,N,,,2019-09-18
"유치원",야음초등학교 병설유치원,울산광역시 남구 산업로 355번길 111,울산광역시 남구 야음동 865-4,35.5204079,129.330361,울산광역시 남구청,남부경찰서,N,,,2019-09-18
"유치원",신정초등학교 병설유치원,울산광역시 남구 봉월로 67번길 16,울산광역시 남구 신정1동 1245,35.539044,129.303765,울산광역시 남구청,남부경찰서,N,,,2019-09-18
"유치원",수암초등학교 병설유치원,울산광역시 남구 중앙로 47,울산광역시 남구 신정4동 951-1,35.5257801,129.3168136,울산광역시 남구청,남부경찰서,N,,,2019-09-18
"유치원",선암초등학교 병설유치원,울산광역시 남구 산업로 325번길 4,울산광역시 남구 선암동 180,35.514338,129.337652,울산광역시 남구청,남부경찰서,N,,,2019-09-18
"유치원",동평초등학교 병설유치원,울산광역시 남구 도산로 77번길 13-14,울산광역시 남구 달동 119-9,35.5330719,129.3256016,울산광역시 남구청,남부경찰서,N,,,2019-09-18
"유치원",대현초등학교 병설유치원,울산광역시 남구 수암로 165-3,울산광역시 남구 야음동 687-2,35.5282739,129.3248953,울산광역시 남구청,남부경찰서,N,,,2019-09-18
"유치원",경희자연과학유치원,울산광역시 남구 대공원로 62,울산광역시 남구 옥동 272,35.5330178,129.290365,울산광역시 남구청,남부경찰서,Y,2,,2019-09-18
"유치원",강남초등학교 병설유치원,울산광역시 남구 중앙로 166번길51,울산광역시 남구 달동 633-9,35.537861,129.3188548,울산광역시 남구청,남부경찰서,N,,,2019-09-18
"유치원",자연아트 유치원,울산광역시 남구 수암로 157,울산광역시 남구 야음동 594-12,35.5270607,129.3241576,울산광역시 남구청,남부경찰서,N,,,2019-09-18
"초등학교",청솔초등학교,울산광역시 남구 삼산로 94번길 20,울산광역시 남구 달동 813,35.5331191,129.3176745,울산광역시 남구청,남부경찰서,Y,5,,2019-09-18
"초등학교",신복초등학교,울산광역시 남구 신복로 74,울산광역시 남구 무거동 810,35.550365,129.253964,울산광역시 남구청,남부경찰서,Y,6,,2019-09-18
"초등학교",월계초등학교,울산광역시 남구 옥현로 12,울산광역시 남구 무거동 488-11,35.538395,129.2582145,울산광역시 남구청,남부경찰서,Y,1,,2019-09-18
"초등학교",옥현초등학교,울산광역시 남구 눌재로 21,울산광역시 남구 무거동 1218,35.5500003,129.2779155,울산광역시 남구청,남부경찰서,Y,2,,2019-09-18
"초등학교",옥산초등학교,울산광역시 남구 옥현로 60번길 7,울산광역시 남구 무거동 480,35.5420208,129.2627086,울산광역시 남구청,남부경찰서,Y,3,,2019-09-18
"초등학교",삼호초등학교,울산광역시 남구 북부순환도로 19번길 8,울산광역시 남구 무거동 292-5,35.5526324,129.2649893,울산광역시 남구청,남부경찰서,Y,3,,2019-09-18
"초등학교",남산초등학교,울산광역시 남구 거마로 17,울산광역시 남구 옥동 1369,35.536826,129.2956472,울산광역시 남구청,남부경찰서,Y,3,,2019-09-18
"초등학교",용연초등학교,울산광역시 남구 야음로 26번길 7,울산광역시 남구 야음동 789-11,35.52517086,129.3243721,울산광역시 남구청,남부경찰서,Y,6,,2019-09-18
"초등학교",도산초등학교,울산광역시 남구 번영로 54번길 25,울산광역시 남구 야음동 540,35.5303169,129.3333417,울산광역시 남구청,남부경찰서,Y,5,,2019-09-18
"초등학교",장생포초등학교,울산광역시 남구 장생포고래로 125번길 5,울산광역시 남구 장생포동 329-1,35.5036792,129.368319,울산광역시 남구청,남부경찰서,Y,2,,2019-09-18
"초등학교",월평초등학교,울산광역시 남구 신남로 95번길 15,울산광역시 남구 신정4동 791-9,35.529715,129.312118,울산광역시 남구청,남부경찰서,Y,5,,2019-09-18
"초등학교",월봉초등학교,울산광역시 남구 팔등로 115번길 10,울산광역시 남구 신정5동 266,35.5482042,129.3192424,울산광역시 남구청,남부경찰서,Y,4,,2019-09-18
"초등학교",중앙초등학교,울산광역시 남구 돋질로 91번길 38,울산광역시 남구 신정3동 592-2,35.54236782,129.3145759,울산광역시 남구청,남부경찰서,Y,4,,2019-09-18
"초등학교",남부초등학교,울산광역시 남구 야음로 11,울산광역시 남구 야음동 762,35.5233759,129.322878,울산광역시 남구청,남부경찰서,Y,6,,2019-09-18
"초등학교",옥서초등학교,울산광역시 남구 법대로 14번길 19,울산광역시 남구 옥동 638,35.538147,129.285561,울산광역시 남구청,남부경찰서,Y,4,,2019-09-18
"초등학교",옥동초등학교,울산광역시 남구 문수로 401,울산광역시 남구 옥동 157-3,35.5348327,129.2963595,울산광역시 남구청,남부경찰서,Y,3,,2019-09-18
"초등학교",여천초등학교,울산광역시 남구 여천로 31,울산광역시 남구 야음동 256,35.52442053,129.3372684,울산광역시 남구청,남부경찰서,Y,2,,2019-09-18
"초등학교",야음초등학교,울산광역시 남구 산업로 355번길 111,울산광역시 남구 야음동 865-4,35.5204079,129.330361,울산광역시 남구청,남부경찰서,Y,4,,2019-09-18
"초등학교",신정초등학교,울산광역시 남구 봉월로 67번길 16,울산광역시 남구 신정1동 1245,35.539044,129.303765,울산광역시 남구청,남부경찰서,Y,5,,2019-09-18
"초등학교",수암초등학교,울산광역시 남구 중앙로 47,울산광역시 남구 신정4동 951-1,35.5257801,129.3168136,울산광역시 남구청,남부경찰서,Y,6,,2019-09-18
"초등학교",선암초등학교,울산광역시 남구 산업로 325번길 4,울산광역시 남구 선암동 180,35.514338,129.337652,울산광역시 남구청,남부경찰서,Y,3,,2019-09-18
"초등학교",삼신초등학교,울산광역시 남구 돋질로 251번길 25,울산광역시 남구 삼산동 1510-1,35.5458406,129.330735,울산광역시 남구청,남부경찰서,Y,3,,2019-09-18
"초등학교",삼산초등학교,울산광역시 남구 남중로 108번길 19,울산광역시 남구 삼산동 196-1,35.544079,129.349791,울산광역시 남구청,남부경찰서,Y,4,,2019-09-18
"초등학교",백합초등학교,울산광역시 남구 돋질로 339번길 16,울산광역시 남구 삼산동 1533,35.5456207,129.3432743,울산광역시 남구청,남부경찰서,Y,5,,2019-09-18
"초등학교",동평초등학교,울산광역시 남구 도산로 77번길 13-14,울산광역시 남구 달동 119-9,35.5330719,129.3256016,울산광역시 남구청,남부경찰서,Y,4,,2019-09-18
"초등학교",동백초등학교,울산광역시 남구 신정로 6,울산광역시 남구 달동 194-1,35.532582,129.323675,울산광역시 남구청,남부경찰서,Y,4,,2019-09-18
"초등학교",대현초등학교,울산광역시 남구 수암로 165-3,울산광역시 남구 야음동 687-2,35.5282739,129.3248953,울산광역시 남구청,남부경찰서,Y,2,,2019-09-18
"초등학교",격동초등학교,울산광역시 남구 문수로 344번길 4,울산광역시 남구 옥동 259,35.5334724,129.2898331,울산광역시 남구청,남부경찰서,Y,4,,2019-09-18
"초등학교",개운초등학교,울산광역시 남구 두왕로 106번길 28-6,울산광역시 남구 선암동 559-11,35.5127824,129.3120188,울산광역시 남구청,남부경찰서,Y,5,,2019-09-18
"초등학교",강남초등학교,울산광역시 남구 중앙로 166번길 51,울산광역시 남구 달동 633-9,35.537861,129.3188548,울산광역시 남구청,남부경찰서,Y,6,,2019-09-18
"유치원",양정초교 병설유치원,울산광역시 북구 양정2길 11,,35.5455798,129.3863797,울산광역시 북구청,동부경찰서,Y,3,8,2019-09-18
"초등학교",염포초교,울산광역시 북구 염포로 667,,35.533523,129.391656,울산광역시 북구청,동부경찰서,Y,2,8~30,2019-09-18
"유치원",염포초교 병설유치원,울산광역시 북구 염포로 667,,35.533523,129.391612,울산광역시 북구청,동부경찰서,Y,2,8~30,2019-09-18
"유치원",동화유치원,울산광역시 북구 동대17길 11,,35.629389,129.352256,울산광역시 북구청,중부경찰서,Y,4,7,2019-09-18
"유치원",호계비둘기유치원,울산광역시 북구 당수골길 12,,35.628267,129.362533,울산광역시 북구청,중부경찰서,Y,3,4,2019-09-18
"유치원",해나라유치원,울산광역시 북구 괴정1길 118,,35.6427292,129.3577819,울산광역시 북구청,중부경찰서,Y,2,5,2019-09-18
"유치원",큰사랑유치원,울산광역시 북구 제내2길 45-4,,35.634312,129.3549634,울산광역시 북구청,중부경찰서,N,0,4,2019-09-18
"어린이집",새싹몬테소리 어린이집,울산광역시 북구 제내1길 29,,35.632745,129.3527624,울산광역시 북구청,중부경찰서,N,0,4,2019-09-18
"유치원",새싹유치원,울산광역시 북구 제내2길 24,,35.6329037,129.3525473,울산광역시 북구청,중부경찰서,Y,2,4,2019-09-18
"유치원",명신유치원,울산광역시 북구 호계로 309-19,,35.630034,129.349134,울산광역시 북구청,중부경찰서,Y,3,10,2019-09-18
"유치원",꿈동산유치원,울산광역시 북구 매곡로 183,,35.648521,129.357962,울산광역시 북구청,중부경찰서,Y,2,30,2019-09-18
"유치원",산새소리유치원,울산광역시 북구 신기3길 30-5,,35.6465059,129.354764,울산광역시 북구청,중부경찰서,Y,5,10~25,2019-09-18
"어린이집",산새소리어린이집,울산광역시 북구 신기3길 30-5,,35.6465059,129.354756,울산광역시 북구청,중부경찰서,Y,5,10~25,2019-09-18
"유치원",현대유리유치원,울산광역시 북구 매곡1로 13,,35.641823,129.353645,울산광역시 북구청,중부경찰서,Y,2,25,2019-09-18
"특수학교",메아리학교,울산광역시 북구 갓안1길 8,,35.6658813,129.3403292,울산광역시 북구청,중부경찰서,Y,3,4~5,2019-09-18
"유치원",이화제일유치원,울산광역시 북구 갓안2길 24,,35.6666694,129.342134,울산광역시 북구청,중부경찰서,Y,2,4~5,2019-09-18
"유치원",월성유치원,울산광역시 북구 화정2길 23,,35.659411,129.3421996,울산광역시 북구청,중부경찰서,N,0,3,2019-09-18
"어린이집",해바라가몬테소리어린이집,울산광역시 북구 약수2길 53,,35.647518,129.3482596,울산광역시 북구청,중부경찰서,Y,2,4,2019-09-18
"유치원",리라유치원,울산광역시 북구 천곡길 122-12,,35.6405383,129.3313656,울산광역시 북구청,중부경찰서,Y,4,10~13,2019-09-18
"유치원",미래유치원,울산광역시 북구 달래골길 46,,35.6396929,129.3234319,울산광역시 북구청,중부경찰서,Y,2,3,2019-09-18
"유치원",예지원유치원,울산광역시 북구 상방로 160,,35.58335048,129.365475,울산광역시 북구청,중부경찰서,Y,3,8,2019-09-18
"유치원",예솔유치원,울산광역시 북구 명촌12길 34,,35.555689,129.352867,울산광역시 북구청,중부경찰서,Y,3,8,2019-09-18
"유치원",은빛유치원,울산광역시 북구 명촌로 91,,35.5519125,129.3536846,울산광역시 북구청,중부경찰서,Y,2,30,2019-09-18
"어린이집",미래몬테소리어린이집,울산광역시 북구 달래골길 46,,35.6396929,129.3234319,울산광역시 북구청,중부경찰서,Y,3,3,2019-09-18
"어린이집",바른몬테소리어린이집,울산광역시 북구 달래골길 27,,35.639656,129.325534,울산광역시 북구청,중부경찰서,Y,3,3,2019-09-18
"유치원",하늘땅유치원,울산광역시 북구 관문길 240,,35.653789,129.3145051,울산광역시 북구청,중부경찰서,Y,2,4,2019-09-18
"유치원",병영자연유치원,울산광역시 북구 무룡로 128,,35.577089,129.373312,울산광역시 북구청,중부경찰서,Y,2,25,2019-09-18
"어린이집",병영자연어린이집,울산광역시 북구 무룡로 128,,35.577089,129.373357,울산광역시 북구청,중부경찰서,Y,2,25,2019-09-18
"유치원",연세유치원,울산광역시 북구 명촌1길 17-2,,35.559023,129.3597018,울산광역시 북구청,중부경찰서,Y,3,6,2019-09-18
"유치원",화봉유치원,울산광역시 북구 송내6길 8,,35.5898029,129.364256,울산광역시 북구청,중부경찰서,Y,3,8,2019-09-18
"유치원",금비유치원,울산광역시 북구 송내13길 14,,35.592701,129.361812,울산광역시 북구청,중부경찰서,Y,4,6~8,2019-09-18
"유치원",양정현대유치원,울산광역시 북구 치전1길 39,,35.5419453,129.3897897,울산광역시 북구청,동부경찰서,Y,2,4,2019-09-18
"유치원",보람유치원,울산광역시 북구 새장터6길 14,,35.5344911,129.3912401,울산광역시 북구청,동부경찰서,Y,2,5~6,2019-09-18
"유치원",동그라미유치원,울산광역시 북구 아랫마을길12,,35.6302688,129.315545,울산광역시 북구청,중부경찰서,N,0,3.5,2019-09-18
"유치원",강동숲유치원,울산광역시 북구 대안2길 38,,35.650131,129.4215271,울산광역시 북구청,동부경찰서,N,0,3.5,2019-09-18
"초등학교",중산초등학교,울산광역시 북구 신천로 125-28,,35.64975358,129.3524231,울산광역시 북구청,중부경찰서,N,0,12~20,2019-09-18
"초등학교",호계초교,울산광역시 북구 동대13길 20,,35.6298793,129.356645,울산광역시 북구청,중부경찰서,Y,,8~16,2019-09-18
"어린이집",근로복지공단어린이집,울산광역시 북구 동대13길 6,,35.630489,129.3581771,울산광역시 북구청,중부경찰서,Y,3,8~16,2019-09-18
"초등학교",농소초교,울산광역시 북구 호계로 192,,35.6213005,129.3559945,울산광역시 북구청,중부경찰서,Y,16,10,2019-09-18
"유치원",농소초교 병설유치원,울산광역시 북구 호계로 192,,35.6213005,129.3559945,울산광역시 북구청,중부경찰서,Y,6,10,2019-09-18
"초등학교",매산초교,울산광역시 북구 매산로 53,,35.6439773,129.3598711,울산광역시 북구청,중부경찰서,Y,6,12~20,2019-09-18
"초등학교",동대초교,울산광역시 북구 신천로 36,,35.6410933,129.3496843,울산광역시 북구청,중부경찰서,Y,5,7~20,2019-09-18
"초등학교",신천초교,울산광역시 북구 호계로 349-7,,35.633678,129.3474414,울산광역시 북구청,중부경찰서,Y,5,26~30,2019-09-18
"초등학교",매곡초교,울산광역시 북구 매곡1로 49,,35.6439806,129.3503633,울산광역시 북구청,중부경찰서,Y,7,8~25,2019-09-18
"초등학교",이화초교,울산광역시 북구 화정4길 40,,35.6607822,129.3444186,울산광역시 북구청,중부경찰서,Y,7,8,2019-09-18
"초등학교",약수초교,울산광역시 북구 약수8길 50,,35.6475085,129.3418773,울산광역시 북구청,중부경찰서,Y,6,8~20,2019-09-18
"유치원",약수초교 병설유치원,울산광역시 북구 약수8길 50,,35.6475085,129.3418773,울산광역시 북구청,중부경찰서,Y,6,8~20,2019-09-18
"초등학교",천곡초교,울산광역시 북구 천곡길 138,,35.6397464,129.3296224,울산광역시 북구청,중부경찰서,Y,4,11~20,2019-09-18
"초등학교",강동초교,울산광역시 북구 화암4길 5,,35.6314315,129.4350097,울산광역시 북구청,동부경찰서,Y,4,8~10,2019-09-18
"유치원",강동초교 병설유치원,울산광역시 북구 화암4길 5,,35.6314315,129.4350097,울산광역시 북구청,동부경찰서,Y,4,8~10,2019-09-18
"초등학교",농서초교,울산광역시 북구 가재길 57,,35.6315345,129.3298959,울산광역시 북구청,중부경찰서,Y,8,12~30,2019-09-18
"유치원",농서초교 병설유치원,울산광역시 북구 가재길 57,,35.6315345,129.3298959,울산광역시 북구청,중부경찰서,Y,8,12~30,2019-09-18
"초등학교",동천초교,울산광역시 북구 고래로 26,,35.6315321,129.341334,울산광역시 북구청,중부경찰서,Y,7,10~15,2019-09-18
"유치원",동천유치원,울산광역시 북구 고래로 34,,35.6315133,129.340677,울산광역시 북구청,중부경찰서,Y,2,10~15,2019-09-18
"초등학교",상안초교,울산광역시 북구 천곡남로 59,,35.6339016,129.3343457,울산광역시 북구청,중부경찰서,Y,4,20~22,2019-09-18
"초등학교",연암초교,울산광역시 북구 두부곡4길 35,,35.585931,129.3697292,울산광역시 북구청,중부경찰서,Y,13,8~10,2019-09-18
"초등학교",효문초교,울산광역시 북구 송도길 84,,35.5666633,129.3687515,울산광역시 북구청,중부경찰서,Y,1,8~15,2019-09-18
"유치원",효문초교 병설유치원,울산광역시 북구 송도길 84,,35.5666633,129.3687515,울산광역시 북구청,중부경찰서,Y,1,8~15,2019-09-18
"초등학교",명촌초교,울산광역시 북구 명촌10길 11,,35.5530103,129.3562497,울산광역시 북구청,중부경찰서,Y,9,8~25,2019-09-18
"초등학교",화봉초교,울산광역시 북구 화산로 42,,35.5958009,129.3676673,울산광역시 북구청,중부경찰서,Y,4,25~31,2019-09-18
"초등학교",송정초교,울산광역시 북구 상방로 75,,35.591356,129.3656516,울산광역시 북구청,중부경찰서,Y,4,6~20,2019-09-18
"유치원",송정유치원,울산광역시 북구 상방로 81,,35.58982624,129.3668084,울산광역시 북구청,중부경찰서,Y,3,6~20,2019-09-18
"초등학교",양정초교,울산광역시 북구 양정2길 11,,35.5455798,129.3863797,울산광역시 북구청,동부경찰서,Y,3,8,2019-09-18
"유치원",강동유치원,울산광역시 북구 달곡2길 38,,35.6054105,129.428482,울산광역시 북구청,동부경찰서,Y,0,4,2019-09-18
"어린이집",황금지어린이집,울산광역시 북구 중산동로 42,,35.654954,129.3519303,울산광역시 북구청,중부경찰서,Y,0,6,2019-09-18
"어린이집",하버드어린이집,울산광역시 북구 호계로 236-21,,35.6257037,129.3547574,울산광역시 북구청,중부경찰서,N,0,,2019-09-18
"초등학교",고헌초교,울산광역시 북구 화동로 129,,35.5852462,129.3702781,울산광역시 북구청,중부경찰서,Y,7,20~30,2019-09-18
"초등학교",은월초교,울산광역시 북구 당수골23길 7,,35.63460979,129.3647508,울산광역시 북구청,중부경찰서,Y,8,12~20,2019-09-18
"초등학교",남외초등학교,울산광역시 중구 남외3길 40 (남외동),울산광역시 중구 남외동 502-2,35.5654767,129.3492942,울산광역시 중구,울산중부경찰서,Y,1,15~20,2019-09-18
"초등학교",다전초등학교,울산광역시 중구 다운동 686,울산광역시 중구 다운동 686,35.5562355,129.2756954,울산광역시 중구,울산중부경찰서,Y,,6~12,2019-09-18
"초등학교",다운초등학교,울산광역시 중구 다운8길 5 (다운동),울산광역시 중구 다운동 811,35.5615121,129.2671308,울산광역시 중구,울산중부경찰서,Y,,6~8,2019-09-18
"초등학교",명정초등학교,울산광역시 중구 명난로 115 (태화동),울산광역시 중구 태화동 733,35.5526061,129.2895848,울산광역시 중구,울산중부경찰서,Y,,8,2019-09-18
"초등학교",태화초등학교,울산광역시 중구 평동길 25 (유곡동),울산광역시 중구 유곡동 101-1,35.5588834,129.306061,울산광역시 중구,울산중부경찰서,Y,,10~16,2019-09-18
"초등학교",울산초등학교,울산광역시 중구 종가5길 30 (유곡동),울산광역시 중구 유곡동 263,35.56203187,129.2993635,울산광역시 중구,울산중부경찰서,Y,1,15,2019-09-18
"초등학교",우정초등학교,울산광역시 중구 평동길 40 (우정동),울산광역시 중구 우정동 707,35.5596744,129.3073074,울산광역시 중구,울산중부경찰서,Y,,8~14,2019-09-18
"초등학교",양사초등학교,울산광역시 중구 장춘로 95 (교동),울산광역시 중구 교동 281,35.5577755,129.318661,울산광역시 중구,울산중부경찰서,Y,,10~16,2019-09-18
"초등학교",성안초등학교,울산광역시 중구 함월14길 19 (성안동),울산광역시 중구 성안동 797-1,35.5764022,129.3123936,울산광역시 중구,울산중부경찰서,Y,,6~15,2019-09-18
"초등학교",백양초등학교,울산광역시 중구 성안8길 10-5 (성안동),울산광역시 중구 성안동 117-1,35.5771777,129.3201223,울산광역시 중구,울산중부경찰서,Y,,6~8,2019-09-18
"초등학교",함월초등학교,울산광역시 중구 학성1길 25 (복산동),울산광역시 중구 복산동 504,35.5589032,129.3293656,울산광역시 중구,울산중부경찰서,Y,1,4~12,2019-09-18
"초등학교",복산초등학교,울산광역시 중구 복산동 517,울산광역시 중구 복산동 517,35.5652672,129.3288813,울산광역시 중구,울산중부경찰서,Y,,4~20,2019-09-18
"초등학교",학성초등학교,울산광역시 중구 해오름1길 15 (반구동),울산광역시 중구 반구동 270-1,35.5600934,129.3423322,울산광역시 중구,울산중부경찰서,Y,,10,2019-09-18
"초등학교",내황초등학교,울산광역시 중구 내황13길 53 (반구동),울산광역시 중구 반구동 395,35.5519808,129.3492014,울산광역시 중구,울산중부경찰서,Y,,6~28,2019-09-18
"초등학교",옥성초등학교,울산광역시 중구 옥교11길 50 (학성동),울산광역시 중구 학성동 180-1,35.553005,129.3345963,울산광역시 중구,울산중부경찰서,Y,,6~10,2019-09-18
"유치원",삼일초등학교병설유치원,울산광역시 중구 동천5길 18-9 (서동),울산광역시 중구 서동 40,35.5822537,129.3455551,울산광역시 중구,울산중부경찰서,Y,,3~8,2019-09-18
"유치원",다운초등학교병설유치원,울산광역시 중구 다운8길 5 (다운동),울산광역시 중구 다운동 811,35.5615121,129.2671308,울산광역시 중구,울산중부경찰서,Y,,6~8,2019-09-18
"유치원",태화초등학교병설유치원,울산광역시 중구 평동길 25 (유곡동),울산광역시 중구 유곡동 101-1,35.5588834,129.306061,울산광역시 중구,울산중부경찰서,Y,,10~16,2019-09-18
"유치원",성안초등학교병설유치원,울산광역시 중구 함월14길 19 (성안동),울산광역시 중구 성안동 797-1,35.5764022,129.3123936,울산광역시 중구,울산중부경찰서,Y,,6~15,2019-09-18
"유치원",울산초등학교병설유치원,울산광역시 중구 종가5길 30 (유곡동),울산광역시 중구 유곡동 263,35.56203187,129.2993635,울산광역시 중구,울산중부경찰서,Y,,15,2019-09-18
"유치원",우정초등학교병설유치원,울산광역시 중구 평동길 40 (우정동),울산광역시 중구 우정동 707,35.5596744,129.3073074,울산광역시 중구,울산중부경찰서,Y,,8~14,2019-09-18
"유치원",양사초등학교병설유치원,울산광역시 중구 장춘로 95 (교동),울산광역시 중구 교동 281,35.5577755,129.318661,울산광역시 중구,울산중부경찰서,Y,,10~16,2019-09-18
"유치원",함월초등학교병설유치원,울산광역시 중구 학성1길 25 (복산동),울산광역시 중구 복산동 504,35.5589032,129.3293656,울산광역시 중구,울산중부경찰서,Y,,4~12,2019-09-18
"유치원",복산초등학교병설유치원,울산광역시 중구 복산동 517,울산광역시 중구 복산동 517,35.5652672,129.3288813,울산광역시 중구,울산중부경찰서,Y,,4~20,2019-09-18
"유치원",학성초등학교병설유치원,울산광역시 중구 해오름1길 15 (반구동),울산광역시 중구 반구동 270-1,35.5600934,129.3423322,울산광역시 중구,울산중부경찰서,Y,1,10,2019-09-18
"유치원",옥성초등학교병설유치원,울산광역시 중구 옥교11길 50 (학성동),울산광역시 중구 학성동 180-1,35.553005,129.3345963,울산광역시 중구,울산중부경찰서,Y,,6~10,2019-09-18
"초등학교",무룡초등학교,울산광역시 중구 약사로 50 (약사동),울산광역시 중구 약사동 762,35.5699379,129.3349786,울산광역시 중구,울산중부경찰서,Y,,15~16,2019-09-18
"초등학교",약사초등학교,울산광역시 중구 화합로 478 (약사동),울산광역시 중구 약사동 707-2,35.5673241,129.3344157,울산광역시 중구,울산중부경찰서,Y,,24,2019-09-18
"초등학교",평산초등학교,울산광역시 중구 평산로 25 (약사동),울산광역시 중구 약사동 612-8,35.5688878,129.3379164,울산광역시 중구,울산중부경찰서,Y,,8~14,2019-09-18
"초등학교",삼일초등학교,울산광역시 중구 동천5길 18-9 (서동),울산광역시 중구 서동 40,35.5822537,129.3455551,울산광역시 중구,울산중부경찰서,Y,,3~8,2019-09-18
"어린이집",공동직장 푸른들어린이집,울산광역시 중구 종가로 451(복산동),울산광역시 중구 복산동 684,35.56746174,129.3255583,울산광역시 중구,울산중부경찰서,N,1,18,2019-09-18
"어린이집",꽃초롱어린이집,울산광역시 중구 다운5길 16-2 (다운동),울산광역시 중구 다운동770-5,35.5636029,129.2680054,울산광역시 중구,울산중부경찰서,Y,,5,2019-09-18
"초등학교",외솔초등학교,울산광역시 중구 종가로 700,울산광역시 중구 서동 621,35.5836741,129.3426431,울산광역시 중구,울산중부경찰서,Y,,30,2019-09-18
"어린이집",꼬마성어린이집,울산광역시 중구 고복수1길 21,울산광역시 중구 서동 284,35.5736138,129.3451613,울산광역시 중구,울산중부경찰서,Y,,5,2019-09-18
"어린이집",빛고을어린이집,울산광역시 중구 번영로 631-6 (남외동),울산광역시 중구 남외동 567-1,35.5714463,129.3507908,울산광역시 중구,울산중부경찰서,Y,,8,2019-09-18
"어린이집",명희어린이집,울산광역시 중구 해오름4길 42 (남외동),울산광역시 중구 남외동 463-16,35.5646361,129.3431338,울산광역시 중구,울산중부경찰서,Y,,8,2019-09-18
"어린이집",백합몬테소리어린이집,울산광역시 중구 신기8길 65 (태화동),울산광역시 중구 태화동 478-4,35.5506341,129.2975612,울산광역시 중구,울산중부경찰서,Y,,8,2019-09-18
"어린이집",향교몬테소리,울산광역시 중구 교동 767-4,울산광역시 중구 교동 767-4,35.5619215,129.3162028,울산광역시 중구,울산중부경찰서,Y,,6,2019-09-18
"어린이집",영광예능어린이집,울산광역시 중구 함월22길 11-6 (성안동),울산광역시 중구 성안동 387-20,35.5781978,129.3166748,울산광역시 중구,울산중부경찰서,Y,,6,2019-09-18
"어린이집",리라어린이집,울산광역시 중구 함월로 35 (성안동),울산광역시 중구 성안동 791-10,35.5779374,129.3110451,울산광역시 중구,울산중부경찰서,Y,,12,2019-09-18
"유치원",양지유치원,울산광역시 중구 우정4길 7 (우정동),울산광역시 중구 우정동 405-12,35.5589006,129.3119924,울산광역시 중구,울산중부경찰서,Y,,6,2019-09-18
"어린이집",월드키즈어린이집,울산광역시 중구 성안동 350-1,울산광역시 중구 성안동 350-1,35.5818301,129.3080464,울산광역시 중구,울산중부경찰서,Y,1,6,2019-09-18
"어린이집",가나몬테소리,울산광역시 중구 도화골4길 69 (복산동),울산광역시 중구 복산동 259-5,35.5656506,129.3296679,울산광역시 중구,울산중부경찰서,Y,,8,2019-09-18
"유치원",파랑새생태유치원,울산광역시 중구 반구정19길 17 (반구동),울산광역시 중구 반구동 876-20,35.5595254,129.3497779,울산광역시 중구,울산중부경찰서,Y,,8,2019-09-18
"유치원",제니유치원,울산광역시 중구 병영로 41,울산광역시 중구 서동 465-2,35.5729736,129.3457507,울산광역시 중구,울산중부경찰서,Y,,12,2019-09-18
"유치원",은성유치원,울산광역시 중구 산전1길 12 (남외동),울산광역시 중구 남외동 562-2,35.5721289,129.3508464,울산광역시 중구,울산중부경찰서,Y,,6,2019-09-18
"유치원",새울산다운유치원,울산광역시 중구 다운5길 40 (다운동),울산광역시 중구 다운동 765-2,35.5649337,129.2668493,울산광역시 중구,울산중부경찰서,Y,,6,2019-09-18
"유치원",예원유치원,울산광역시 중구 다운동 763,울산광역시 중구 다운동 763,35.5562355,129.2756954,울산광역시 중구,울산중부경찰서,Y,,8,2019-09-18
"유치원",재능유치원,울산광역시 중구 신기4길 10 (태화동),울산광역시 중구 태화동 474-4,35.5511488,129.2965526,울산광역시 중구,울산중부경찰서,N,,8,2019-09-18
"유치원",예은유치원,울산광역시 중구 평동길 25 (유곡동),울산광역시 중구 유곡동 101-1,35.5588668,129.306061,울산광역시 중구,울산중부경찰서,N,,10,2019-09-18
"유치원",정인유치원,울산광역시 중구 당산5길 37-3 (우정동),울산광역시 중구 우정동 282-17,35.5550639,129.3121483,울산광역시 중구,울산중부경찰서,Y,,8,2019-09-18
"유치원",백련과학유치원,울산광역시 중구 성안동 55-1,울산광역시 중구 성안동 55-1,35.5818301,129.3080464,울산광역시 중구,울산중부경찰서,Y,,20,2019-09-18
"유치원",예빈유치원,울산광역시 중구 함월5길 17 (성안동),울산광역시 중구 성안동 862-9,35.5750075,129.3055453,울산광역시 중구,울산중부경찰서,Y,,6,2019-09-18
"유치원",혜화유치원,울산광역시 중구 서원길 14 (복산동),울산광역시 중구 복산동 37-7,35.5620398,129.3341714,울산광역시 중구,울산중부경찰서,Y,,6,2019-09-18
"유치원",이안들꽃유치원,울산광역시 중구 북부순환도로 574 (복산동),울산광역시 중구 복산동 633-3,35.5621269,129.323243,울산광역시 중구,울산중부경찰서,Y,,30,2019-09-18
"유치원",꿈샘유치원,울산광역시 중구 푸름길 24 (복산동),울산광역시 중구 복산동 452-7,35.5594423,129.3266545,울산광역시 중구,울산중부경찰서,Y,,20,2019-09-18
"유치원",울산유치원,울산광역시 중구 학성1길 33 (복산동),울산광역시 중구 복산동 501-7,35.5585002,129.3307652,울산광역시 중구,울산중부경찰서,Y,,6,2019-09-18
"유치원",꿈사랑유치원,울산광역시 중구 학성공원5길 12 (학성동),울산광역시 중구 학성동 82-13,35.5521447,129.3401627,울산광역시 중구,울산중부경찰서,Y,,6,2019-09-18
"특수학교",혜인학교,울산광역시 중구 북부순환도로 777 (약사동),울산광역시 중구 약사동 527,35.5739334,129.3362021,울산광역시 중구,울산중부경찰서,Y,1,21,2019-09-18
"유치원",무룡초등학교병설유치원,울산광역시 중구 약사로 50 (약사동),울산광역시 중구 약사동 762,35.5699379,129.3349786,울산광역시 중구,울산중부경찰서,Y,,15~16,2019-09-18
"유치원",약사초등학교병설유치원,울산광역시 중구 화합로 478 (약사동),울산광역시 중구 약사동 707-2,35.5673241,129.3344157,울산광역시 중구,울산중부경찰서,Y,,10~16,2019-09-18
"유치원",평산초등학교병설유치원,울산광역시 중구 평산로 25 (약사동),울산광역시 중구 약사동 612-8,35.5688878,129.3379164,울산광역시 중구,울산중부경찰서,Y,,8~14,2019-09-18
"초등학교",병영초등학교,울산광역시 중구 병영성13길 2 (서동),울산광역시 중구 서동 311,35.5749775,129.345076,울산광역시 중구,울산중부경찰서,Y,,5~12,2019-09-18
"초등학교",두동초등학교,울산광역시 울주군 두동면 대밀길 29,울산광역시 울주군 두동면 구미리 650-1,35.6549949,129.202159,울주군,울주경찰서,N,0,,2019-09-18
"초등학교",두서초등학교,울산광역시 울주군 두서면 인보로 87,울산광역시 울주군 두서면 인보리 459-2,35.64311719,129.1583635,울주군,울주경찰서,Y,1,,2019-09-18
"초등학교",척과초등학교,울산광역시 울주군 범서읍 갈매정길 16,울산광역시 울주군 범서읍 척과리 749-1,35.6150666,129.2758437,울주군,울주경찰서,N,0,,2019-09-18
"초등학교",굴화초등학교,울산광역시 울주군 범서읍 굴화3길 30,울산광역시 울주군 범서읍 굴화리 52-3,35.553779,129.260985,울주군,울주경찰서,Y,2,,2019-09-18
"초등학교",호연초등학교,울산광역시 울주군 범서읍 대리로 75,울산광역시 울주군 범서읍 구영리 217,35.5687273,129.2499264,울주군,울주경찰서,Y,3,,2019-09-18
"초등학교",무거초등학교,울산광역시 울주군 범서읍 장검1길 46,울산광역시 울주군 범서읍 굴화리 230,35.5520465,129.2522967,울주군,울주경찰서,Y,1,,2019-09-18
"초등학교",구영초등학교,울산광역시 울주군 범서읍 점촌1길 10,울산광역시 울주군 범서읍 구영리 699,35.5770194,129.238856,울주군,울주경찰서,Y,3,,2019-09-18
"초등학교",명지초등학교,울산광역시 울주군 범서읍 점촌4길 17,울산광역시 울주군 범서읍 구영리 855-1,35.572389,129.2378141,울주군,울주경찰서,Y,2,,2019-09-18
"초등학교",범서초등학교,울산광역시 울주군 범서읍 천상1길 7,울산광역시 울주군 범서읍 천상리 346,35.5646379,129.230762,울주군,울주경찰서,Y,3,,2019-09-18
"초등학교",천상초등학교,울산광역시 울주군 범서읍 천상7길 28,울산광역시 울주군 범서읍 천상리 674,35.5609799,129.2218532,울주군,울주경찰서,Y,2,,2019-09-18
"초등학교",중남초등학교,울산광역시 울주군 삼남면 사촌신복로 572,울산광역시 울주군 삼남면 신화리 1485-17,35.5366009,129.1088359,울주군,울주경찰서,Y,1,,2019-09-18
"초등학교",방기초등학교,울산광역시 울주군 삼남면 하방로 56,울산광역시 울주군 삼남면 방기리 117,35.5070487,129.0931736,울주군,울주경찰서,Y,1,,2019-09-18
"초등학교",삼동초등학교,울산광역시 울주군 삼동면 삼동로 788,울산광역시 울주군 삼동면 하잠리 953-2,35.5236929,129.159252,울주군,울주경찰서,N,0,,2019-09-18
"초등학교",상북초등학교,울산광역시 울주군 상북면 도동신리로 35,울산광역시 울주군 상북면 산전리 473-1,35.592142,129.0931277,울주군,울주경찰서,N,0,,2019-09-18
"초등학교",소호분교초등학교,울산광역시 울주군 상북면 소호당리길 1,울산광역시 울주군 상북면 소호리 376-3,35.6707275,129.0860188,울주군,울주경찰서,N,0,,2019-09-18
"초등학교",서생초등학교,울산광역시 울주군 서생면 신암해안길 58,울산광역시 울주군 서생면 신암리 223,35.3496218,129.327462,울주군,울주경찰서,N,0,,2019-09-18
"초등학교",성동초등학교,울산광역시 울주군 서생면 진하길 7,울산광역시 울주군 서생면 서생리 387,35.3855388,129.341732,울주군,울주경찰서,Y,1,,2019-09-18
"초등학교",명산초등학교,울산광역시 울주군 서생면 화산발리로 60,울산광역시 울주군 서생면 명산리 495-1,35.3510868,129.2960338,울주군,울주경찰서,N,0,,2019-09-18
"초등학교",영화초등학교,울산광역시 울주군 언양읍 방천9길 33,울산광역시 울주군 언양읍 서부리 291-10,35.5673847,129.1158764,울주군,울주경찰서,Y,1,,2019-09-18
"초등학교",언양초등학교,울산광역시 울주군 언양읍 북문8길 49,울산광역시 울주군 언양읍 동부리 407-2,35.57233905,129.1259072,울주군,울주경찰서,Y,2,,2019-09-18
"초등학교",반천초등학교,울산광역시 울주군 언양읍 샘소3길 19,울산광역시 울주군 언양읍 반천리 438,35.5563955,129.183149,울주군,울주경찰서,Y,1,,2019-09-18
"초등학교",반곡초등학교,울산광역시 울주군 언양읍 언동3길 42-3,울산광역시 울주군 언양읍 반곡리 709,35.6033055,129.1414205,울주군,울주경찰서,Y,2,,2019-09-18
"초등학교",삼평초등학교,울산광역시 울주군 온산읍 삼평길 200,울산광역시 울주군 온산읍 삼평리 365,35.4063013,129.3228918,울주군,울주경찰서,N,0,,2019-09-18
"초등학교",덕신초등학교,울산광역시 울주군 온산읍 서영남1길 27,울산광역시 울주군 온산읍 덕신리 612,35.4373431,129.3057187,울주군,울주경찰서,Y,2,,2019-09-18
"초등학교",온산초등학교,울산광역시 울주군 온산읍 신온9길 16,울산광역시 울주군 온산읍 덕신리 327-1,35.428516,129.3142143,울주군,울주경찰서,Y,3,,2019-09-18
"초등학교",온양초등학교,울산광역시 울주군 온양읍 남창1길 32,울산광역시 울주군 온양읍 남창리 280,35.4178408,129.2801709,울주군,울주경찰서,Y,1,,2019-09-18
"초등학교",온남초등학교,울산광역시 울주군 온양읍 화산발리로 734,울산광역시 울주군 온양읍 대안리 250,35.4059731,129.2888885,울주군,울주경찰서,N,0,,2019-09-18
"초등학교",웅촌초등학교,울산광역시 울주군 웅촌면 곡천검단로 4,울산광역시 울주군 웅촌면 곡천리 304,35.4643696,129.2071444,울주군,울주경찰서,Y,3,,2019-09-18
"초등학교",검단초등학교,울산광역시 울주군 웅촌면 은현작동로 58,울산광역시 울주군 웅촌면 검단리 603-3,35.4579144,129.177744,울주군,울주경찰서,Y,1,,2019-09-18
"초등학교",청량초등학교,울산광역시 울주군 청량읍 덕정5길 14,울산광역시 울주군 청량읍 덕하리 412-2,35.48667518,129.297399,울주군,울주경찰서,Y,1,,2019-09-18
"초등학교",삼정초등학교,울산광역시 울주군 청량읍 삼정로 36,울산광역시 울주군 청량읍 삼정리 786-2,35.49094569,129.233728,울주군,울주경찰서,Y,1,,2019-09-18
"초등학교",문수초등학교,울산광역시 울주군 청량읍 청송길 8,울산광역시 울주군 청량읍 율리 390,35.51887735,129.240629979,울주군,울주경찰서,N,0,,2019-09-18
"유치원",두동(병설)유치원,울산광역시 울주군 두동면 대밀길 29,울산광역시 울주군 두동면 구미리 650-1,35.6549949,129.202159,울주군,울주경찰서,N,0,,2019-09-18
"유치원",두서(병설)유치원,울산광역시 울주군 두서면 인보로 87,울산광역시 울주군 두서면 인보리 459-2,35.64311719,129.1583635,울주군,울주경찰서,Y,1,,2019-09-18
"유치원",척과(병설)유치원,울산광역시 울주군 범서읍 갈매정길 16,울산광역시 울주군 범서읍 척과리 749-1,35.6150666,129.2758437,울주군,울주경찰서,N,0,,2019-09-18
"유치원",자운영유치원,울산광역시 울주군 범서읍 굴화3길 22,울산광역시 울주군 범서읍 굴화리 52-1,35.554251,129.2614972,울주군,울주경찰서,N,0,,2019-09-18
"유치원",해담솔유치원,울산광역시 울주군 범서읍 대리1길 13-3,울산광역시 울주군 범서읍 구영리 378-11,35.568612,129.244287,울주군,울주경찰서,N,0,,2019-09-18
"유치원",호연(병설)유치원,울산광역시 울주군 범서읍 대리로 75,울산광역시 울주군 범서읍 구영리 217,35.5687273,129.2499264,울주군,울주경찰서,Y,3,,2019-09-18
"유치원",구영유치원,울산광역시 울주군 범서읍 모두박길 10-5,울산광역시 울주군 범서읍 구영리 136-1,35.565917,129.250726,울주군,울주경찰서,N,0,,2019-09-18
"유치원",푸른유치원,울산광역시 울주군 범서읍 점촌2길 54,울산광역시 울주군 범서읍 구영리 749-1,35.5773356,129.2378825,울주군,울주경찰서,N,0,,2019-09-18
"유치원",명지(병설)유치원,울산광역시 울주군 범서읍 점촌4길 17,울산광역시 울주군 범서읍 구영리 855-1,35.572389,129.2378141,울주군,울주경찰서,Y,2,,2019-09-18
"유치원",한아름유치원,울산광역시 울주군 범서읍 점촌6길 31-11,울산광역시 울주군 범서읍 구영리 995,35.568247,129.2403583,울주군,울주경찰서,N,0,,2019-09-18
"유치원",신하나유치원,울산광역시 울주군 범서읍 점촌6길 5-12,울산광역시 울주군 범서읍 구영리 384-3,35.568038,129.2432154,울주군,울주경찰서,N,0,,2019-09-18
"유치원",범서(병설)유치원,울산광역시 울주군 범서읍 천상1길 7,울산광역시 울주군 범서읍 천상리 346,35.5646379,129.230762,울주군,울주경찰서,Y,3,,2019-09-18
"유치원",천상잔디유치원,울산광역시 울주군 범서읍 천상2길 6-12,울산광역시 울주군 범서읍 천상리 334,35.5638844,129.2277981,울주군,울주경찰서,N,0,,2019-09-18
"유치원",으뜸과학유치원,울산광역시 울주군 범서읍 천상6길 28-12,,35.56093575,129.2227408,울주군,울주경찰서,Y,2,,2019-09-18
"유치원",석남유치원,울산광역시 울주군 삼남면 교동로 143,울산광역시 울주군 삼남면 교동리 1557-4,35.5626876,129.116271,울주군,울주경찰서,N,0,,2019-09-18
"유치원",중남(병설)유치원,울산광역시 울주군 삼남면 사촌신복로 572,울산광역시 울주군 삼남면 신화리 1485-17,35.5366009,129.1088359,울주군,울주경찰서,Y,1,,2019-09-18
"유치원",방기(병설)유치원,울산광역시 울주군 삼남면 하방로 56,울산광역시 울주군 삼남면 방기리 117,35.5070487,129.0931736,울주군,울주경찰서,Y,1,,2019-09-18
"유치원",삼동(병설)유치원,울산광역시 울주군 삼동면 삼동로 788,울산광역시 울주군 삼동면 하잠리 953-2,35.5236929,129.159252,울주군,울주경찰서,N,0,,2019-09-18
"유치원",서생(병설)유치원,울산광역시 울주군 서생면 신암해안길 58,울산광역시 울주군 서생면 신암리 223,35.3496218,129.327462,울주군,울주경찰서,N,0,,2019-09-18
"유치원",성동(병설)유치원,울산광역시 울주군 서생면 진하길 7,울산광역시 울주군 서생면 서생리 387,35.3855388,129.341732,울주군,울주경찰서,Y,1,,2019-09-18
"유치원",대동유치원,울산광역시 울주군 언양읍 방천5길 11-10,울산광역시 울주군 언양읍 서부리 258-7,35.5660002,129.112374,울주군,울주경찰서,N,0,,2019-09-18
"유치원",언양(병설)유치원,울산광역시 울주군 언양읍 북문8길 49,울산광역시 울주군 언양읍 동부리 407-2,35.57233905,129.1259072,울주군,울주경찰서,Y,2,,2019-09-18
"유치원",반천(병설)유치원,울산광역시 울주군 언양읍 샘소3길 19,울산광역시 울주군 언양읍 반천리 438,35.5563955,129.183149,울주군,울주경찰서,Y,1,,2019-09-18
"유치원",서울산유치원,울산광역시 울주군 언양읍 서문4길 15,울산광역시 울주군 언양읍 동부리 346-9,35.568543,129.1196431,울주군,울주경찰서,N,0,,2019-09-18
"유치원",반곡(병설)유치원,울산광역시 울주군 언양읍 언동3길 42-3,울산광역시 울주군 언양읍 반곡리 709,35.6033055,129.1414205,울주군,울주경찰서,Y,2,,2019-09-18
"유치원",아담유치원,울산광역시 울주군 온산읍 거남1길 38,울산광역시 울주군 온산읍 학남리 835-1,35.452063,129.3161594,울주군,울주경찰서,N,0,,2019-09-18
"유치원",삼평(병설)유치원,울산광역시 울주군 온산읍 삼평길 200,울산광역시 울주군 온산읍 삼평리 365,35.4063013,129.3228918,울주군,울주경찰서,N,0,,2019-09-18
"유치원",덕신(병설)유치원,울산광역시 울주군 온산읍 서영남1길 27,울산광역시 울주군 온산읍 덕신리 612,35.4373431,129.3057187,울주군,울주경찰서,Y,2,,2019-09-18
"유치원",온산에덴유치원,울산광역시 울주군 온산읍 서영남길 42,울산광역시 울주군 온산읍 덕신리 612-12,35.4360868,129.304788,울주군,울주경찰서,N,0,,2019-09-18
"유치원",온산(병설)유치원,울산광역시 울주군 온산읍 신온9길 16,울산광역시 울주군 온산읍 덕신리 327-1,35.428516,129.3142143,울주군,울주경찰서,Y,3,,2019-09-18
"유치원",지혜숲유치원,울산광역시 울주군 온산읍 영남4길 28,울산광역시 울주군 온산읍 덕신리 185-3,35.439633,129.311448,울주군,울주경찰서,N,0,,2019-09-18
"유치원",온양(병설)유치원,울산광역시 울주군 온양읍 남창1길 32,울산광역시 울주군 온양읍 남창리 280,35.4178408,129.2801709,울주군,울주경찰서,Y,1,,2019-09-18
"유치원",현대예은유치원,울산광역시 울주군 온양읍 남창강변로 101,울산광역시 울주군 온양읍 대안리 542,35.412092,129.2855074,울주군,울주경찰서,N,0,,2019-09-18
"유치원",온양새싹유치원,울산광역시 울주군 온양읍 동상로 287,울산광역시 울주군 온양읍 동상리 284-2,35.413713,129.3087672,울주군,울주경찰서,N,0,,2019-09-18
"유치원",하늘소자연과학유치원,울산광역시 울주군 온양읍 상발1길 23,울산광역시 울주군 온양읍 발리 483-1,35.408816,129.2945847,울주군,울주경찰서,N,0,,2019-09-18
"유치원",굿모닝유치원,울산광역시 울주군 온양읍 솔밭1길 42-4,울산광역시 울주군 온양읍 대안리 205-5,35.4062061,129.286039,울주군,울주경찰서,N,0,,2019-09-18
"유치원",연세자연유치원,울산광역시 울주군 온양읍 솔밭길 55,울산광역시 울주군 온양읍 대안리 211-1,35.404723,129.287068,울주군,울주경찰서,N,0,,2019-09-18
"유치원",한솔유치원,울산광역시 울주군 온양읍 연안2길 38,울산광역시 울주군 온양읍 대안리 417,35.40730406,129.281472,울주군,울주경찰서,N,0,,2019-09-18
"유치원",온남(병설)유치원,울산광역시 울주군 온양읍 화산발리로 734,울산광역시 울주군 온양읍 대안리 250,35.4059731,129.2888885,울주군,울주경찰서,N,0,,2019-09-18
"유치원",웅촌(병설)유치원,울산광역시 울주군 웅촌면 곡천검단로 4,울산광역시 울주군 웅촌면 곡천리 304,35.4643696,129.2071444,울주군,울주경찰서,Y,3,,2019-09-18
"유치원",울산누리유치원,울산광역시 울주군 웅촌면 삼동로 1617-1,울산광역시 울주군 웅촌면 대복리 302,35.490004,129.213787,울주군,울주경찰서,N,0,,2019-09-18
"유치원",검단(병설)유치원,울산광역시 울주군 웅촌면 은현작동로 58,울산광역시 울주군 웅촌면 검단리 603-3,35.4579144,129.177744,울주군,울주경찰서,Y,1,,2019-09-18
"유치원",청량(병설)유치원,울산광역시 울주군 청량읍 덕정5길 14,울산광역시 울주군 청량읍 덕하리 412-2,35.48667518,129.297399,울주군,울주경찰서,Y,1,,2019-09-18
"유치원",꿈밭유치원,울산광역시 울주군 청량읍 삼정로 92,울산광역시 울주군 청량읍 삼정리 755,35.49354372,129.2392077,울주군,울주경찰서,N,0,,2019-09-18
"어린이집",슈아브어린이집,울산광역시 울주군 범서읍 천상5길 28-9,울산광역시 울주군 범서읍 천상리 664,35.561017,129.224526,울주군,울주경찰서,N,0,,2019-09-18
"어린이집",보배이엔이어린이집,울산광역시 울주군 범서읍 천상중앙길 34-15,울산광역시 울주군 범서읍 천상리 389,35.565444,129.231759,울주군,울주경찰서,N,0,,2019-09-18
"어린이집",울주몬테소리어린이집,울산광역시 울주군 삼남면 수남1길 32,울산광역시 울주군 삼남면 교동리 962-4,35.5523173,129.114582,울주군,울주경찰서,N,0,,2019-09-18
"어린이집",교동이화어린이집,울산광역시 울주군 삼남면 자수정로 27,울산광역시 울주군 삼남면 교동리 1368,35.539852,129.1067363,울주군,울주경찰서,N,0,,2019-09-18
"어린이집",해오름어린이집,울산광역시 울주군 서생면 해맞이로 1017,울산광역시 울주군 서생면 신암리 151,35.35704393,129.329111,울주군,울주경찰서,N,0,,2019-09-18
"어린이집",한우리어린이집,울산광역시 울주군 언양읍 북문12길 56,울산광역시 울주군 언양읍 동부리 419-1,35.5739483,129.1243971,울주군,울주경찰서,N,0,,2019-09-18
"어린이집",해인어린이집,울산광역시 울주군 언양읍 언양로 111-5,울산광역시 울주군 언양읍 어음리 117,35.558467,129.138026,울주군,울주경찰서,N,0,,2019-09-18
"어린이집",삼일어린이집,울산광역시 울주군 언양읍 웃방천2길 13,울산광역시 울주군 언양읍 서부리 243-5,35.567432,129.111022,울주군,울주경찰서,N,0,,2019-09-18
"어린이집",혜원어린이집,울산광역시 울주군 언양읍 웃방천2길 3,울산광역시 울주군 언양읍 서부리 245-4,35.566733,129.1106165,울주군,울주경찰서,N,0,,2019-09-18
"어린이집",에꼬르앙팡어린이집,울산광역시 울주군 온양읍 보곡1길 5-8,울산광역시 울주군 온양읍 대안리 183-2,35.409783,129.287269,울주군,울주경찰서,N,0,,2019-09-18
"어린이집",빛과소금어린이집,울산광역시 울주군 온양읍 보곡2길 24-17,울산광역시 울주군 온양읍 대안리 174-6,35.409961,129.291166,울주군,울주경찰서,N,0,,2019-09-18
"어린이집",금샘어린이집,울산광역시 울주군 청량읍 송전2길 6-6,울산광역시 울주군 청량읍 상남리 715-6,35.487656,129.3064307,울주군,울주경찰서,N,0,,2019-09-18
